"Descrizione","Tipo","Chiuso","Indirizzo","Cap","Citta","Prov.","lat","long"
"A MODO MIO PIZZERIA","TAKE AWAY / PIZZ. ASPORTO","DOM","CORSO ITALIA, 5",39100,"BOLZANO","BZ",46.5012599837507,11.3402499683855
"ABC RISTORANTE PIZZERIA","RISTORANTE / PIZZERIA","MER","VIA DELLE CORSE, 25",39012,"MERANO","BZ",46.67164999371,11.1587700299727
"ABRAM BAR RISTORANTE","RISTORANTE / PIZZERIA","MAR","VIA NAZIONALE, 17",39040,"ORA","BZ",46.3461799809459,11.2952200375941
"ACQUAFUN","RISTORANTE / PIZZERIA","XXX","VIA MICHAEL HYRONIMUS HUEBER, 2",39038,"SAN CANDIDO","BZ",46.7329199876324,12.2858999726762
"ADI BY OSSI BAR PIZZERIA","RISTORANTE / PIZZERIA","XXX","V. SCENA, 27",39017,"SCHENNA","BZ",46.6846799974724,11.1895199637811
"ADIGE BAR","BAR TAVOLA FREDDA","MAI","VIA JOSEF SPECKBACHER, 12",39012,"MERANO","BZ",46.6702399899579,11.1510699946205
"ADLER RISTORANTE PIZZERIA","RISTORANTE / PIZZERIA","MER","VIA PRINCIPALE, 5",39050,"NOVA PONENTE","BZ",46.4136200195242,11.4274700411723
"AGIP BAR","BAR TAVOLA FREDDA","DOM","VIA ROMA, 96",39100,"BOLZANO","BZ",46.4876199869847,11.3430399686764
"AGORA BISTRO' BAR","BAR TAVOLA CALDA","MAI","VIA DI MEZZO AI PIANI, 7",39100,"BOLZANO","BZ",46.495360004015,11.3704399910618
"AL BRAT DA CIANO BAR","BAR TAVOLA FREDDA","MAI","VIA ANTONIO PACINOTTI, 14",39100,"BOLZANO","BZ",46.481839994193,11.3299600087711
"AL CANTUCCIO RISTORANTE PIZZERIA","RISTORANTE / PIZZERIA","DO","VIA DELLA VISITAZIONE, 4",39100,"BOLZANO","BZ",46.4969800163512,11.3379700069027
"AL CAVALIERE RISTORANTE PIZZERIA","RISTORANTE / PIZZERIA","MAI","VIA ANDREAS HOFER, 24",39100,"BOLZANO","BZ",46.5012700001249,11.3576499611873
"AL CERVO ALBERGO RISTORANTE","TRATTORIA","MAI","PIAZZA SANTA GELTRUDE, 9",39040,"MAGRE' SULLA STRADA DEL VINO","BZ",46.2872699956816,11.2098900001542
"AL CERVO RISTORANTE","RISTORANTE","MAI","PIAZZA SANTA GELTRUDE, 5",39040,"MAGRE' SULLA STRADA DEL VINO","BZ",46.2874999951047,11.2099699635105
"AL CERVO RISTORANTE","RISTORANTE / PIZZERIA","MAI","LOCALITA' SCHRANN, 9/C",39050,"SAN GENESIO ATESINO","BZ",46.535019984718,11.3319399819393
"AL CERVO TRATTORIA PIZZERIA","RISTORANTE / PIZZERIA","LUN","VIA VURZA, 2",39055,"LAIVES","BZ",46.4425499906962,11.3369800203186
"AL FUSO ORARIO RISTORANTE","RISTORANTE","DOM","C.SO ITALIA, 67/69",39100,"BOLZANO","BZ",46.4951300045918,11.3403900299875
"AL PAPERO GIALLO TAKE AWAY","RISTORANTE / PIZZERIA","MAI","VIA MILANO, 37",39100,"BOLZANO","BZ",46.4897100145415,11.335119992185
"AL TAGLIO ROUTE 66 PIZZA","FAST FOOD","XXX","PARCO TSCHURTSCHENTHALER, 4",39031,"BRUNICO","BZ",46.795169993674,11.9352800175246
"AL TORCHIO RISTORANTE PIZZERIA","RISTORANTE / PIZZERIA","MAI","VIA MUSEO, 2",39100,"BOLZANO","BZ",46.499660004163,11.3523899816686
"ALAN CAFFE' BAR","BAR TAVOLA FREDDA","DOM","VIALE AMEDEO DUCA D'AOSTA, 72",39100,"BOLZANO","BZ",46.4973999916098,11.3383900240708
"ALBERGO CASA GRANDE RISTORANTE PIZZERIA","RISTORANTE / PIZZERIA","MAI","VIA JOHN FITZGERALD KENNEDY, 81",39055,"LAIVES","BZ",46.4279799798634,11.3391100295536
"ALBERGO JAGERHEIM RISTORANTE","RISTORANTE","MER","VIA NAZIONALE, 16",39040,"CAMPO DI TRENS","BZ",46.3428599929171,11.2896100297988
"ALBERGO LOCANDA AL DRAGO RISTORANTE","RISTORANTE","S&D","VIA CHIESA VECCHIA, 15",39051,"BRONZOLO","BZ",46.4031400002554,11.32146000458
"ALBERGO PIZZERIA RISTORANTE STERZINGERHOF","RISTORANTE / PIZZERIA","XXX","V. GEIZKOFLER, 15",39049,"VIPITENO","BZ",46.8981899958561,11.43343996789
"ALBERGO STERNEGG RISTORANTE PIZZERIA","RISTORANTE / PIZZERIA","MER","VIA STAZIONE, 31",39057,"APPIANO SULLA STRADA DEL VINO","BZ",46.4550199995074,11.2610999919759
"ALBERGO ZUR SONNE","RISTORANTE / PIZZERIA","DOM","VIA VENOSTA, 24",39023,"LASA","BZ",46.6166000005866,10.7004800023048
"ALBERGO ZUR SONNE RISTORANTE","RISTORANTE","XXX","V. EGGENTALER, 7",39050,"CORNEDO ALL'ISARCO","BZ",46.4939999983152,11.3923600089701
"ALEX PUB","BAR TAVOLA CALDA","XXX","VIA S. BAUMGARTNER, 14",39049,"VIPITENO","BZ",46.9109464567258,11.430088538274
"ALIMENTARI VIVA","MARKET CON GASTR./SUPERMERCATO","MAI","VIA DANTE ALIGHIERI, 14",39042,"BRESSANONE","BZ",46.7209199940418,11.6510299833729
"ALISANDER RISTORANTE","RISTORANTE / PIZZERIA","SAB","VIA COL, 14",39033,"CORVARA IN BADIA","BZ",46.5464899905708,11.8808900154573
"ALLA TORRE RISTORANTE","RISTORANTE / PIZZERIA","MAI","VIA PARROCCHIA, 6",39012,"MERANO","BZ",46.6607999972351,11.1623900063161
"ALLE 4 STAGIONI","MARKET CON GASTR./SUPERMERCATO","XXX","V. MILANO, 129/A",39100,"BOLZANO","BZ",46.4901400061744,11.3267599657768
"ALL'OLMO BAR RISTORANTE PIZZERIA","RISTORANTE / PIZZERIA","DOM","VIA ANTONIO PACINOTTI, 15",39100,"BOLZANO","BZ",46.4829500096305,11.3315799791979
"ALL'ORSETTO RISTORANTE PIZZERIA","RISTORANTE / PIZZERIA","MAI","VIA ENRICO FERMI, 10",39012,"MERANO","BZ",46.6361499934626,11.1740899696825
"ALMA 9 RISTORANTE","RISTORANTE","XXX","VIA DEL MACELLO, 9",39100,"BOLZANO","BZ",46.4976799890854,11.366460011977
"ALMDIELE RISTORANTE PIZZERIA","RISTORANTE / PIZZERIA","LUN","LOCALITA' MAURLECHENFELD, 2",39030,"VALLE AURINA","BZ",46.9525199834968,11.9182299691803
"ALPENBLICK BAR PIZZERIA","RISTORANTE / PIZZERIA","MAR","V. STAZIONE, 24",39025,"PLAUS","BZ",46.6562199996115,11.0414099744714
"ALPENROSE BAR RISTORANTE PIZZERIA","RISTORANTE / PIZZERIA","MAR","VIA SAN GIACOMO, 91",39055,"LAIVES","BZ",46.4598400129284,11.3328100234889
"ALPENROSE RISTORANTE","RISTORANTE / PIZZERIA","MAI","LOCALITA' VILLA, 7",39037,"RODENGO","BZ",46.7790000032536,11.6917500233705
"ALPING BAR","BAR TAVOLA CALDA","MAI","VIA VALLE AURINA, 8",39031,"BRUNICO","BZ",46.8095799939751,11.9362799785735
"ALTER SCHLACHTHOF BAR RISTORANTE","MARKET CON GASTR./SUPERMERCATO","MAI","VICOLO MACELLO, 4",39042,"BRESSANONE","BZ",46.7173599902156,11.6583799904484
"ALUMIX RISTORANTE","RISTORANTE","MAI","VIA ALESSANDRO VOLTA, 9",39100,"BOLZANO","BZ",46.4791299991678,11.33337001844
"AM BRUNNER HOTEL RISTORANTE","RISTORANTE / PIZZERIA","MAI","FRAZIONE SCIAVES, 6",39040,"NAZ-SCIAVES","BZ",46.7517299841865,11.6801199650765
"AM RATHAUS RISTORANTE PIZZERIA","RISTORANTE / PIZZERIA","XXX","VIA MUNICIPIO, 1",39025,"NATURNO","BZ",46.6509600200928,11.0049200295494
"AMBA ALAGI BAR","BAR TAVOLA FREDDA","DOM","VIA CESARE BATTISTI, 3",39100,"BOLZANO","BZ",46.5002199991142,11.3417800009911
"AMERICAN BISTROT PUB","BAR TAVOLA CALDA","MAI","VIALE EUROPA, 140",39100,"BOLZANO","BZ",46.4928899828777,11.3254699908781
"AMICI ALEXANDER BAR","BAR TAVOLA FREDDA","DOM","VIA CESARE BATTISTI, 25",39100,"BOLZANO","BZ",46.5004899802154,11.3382499624688
"ANDREAS HOFER HOTEL RISTORANTE","RISTORANTE / PIZZERIA","MAI","FRAZIONE RASUN DI SOPRA, 73",39030,"RASUN ANTERSELVA","BZ",46.7922499900648,12.0562199838721
"ANDREAS HOFER RISTORANTE","RISTORANTE / PIZZERIA","SAB","VIA CAMPO TURES, 1",39031,"BRUNICO","BZ",46.8014300180606,11.93818996285
"ANDY BAR","BAR TAVOLA FREDDA","MAI","V.LE EUROPA, 12",39100,"BOLZANO","BZ",46.4927199978813,11.3319399819393
"ANGOLO MORETTI RISTORANTE PIZZERIA","RISTORANTE / PIZZERIA","MAI","VIA TORINO, 1",39100,"BOLZANO","BZ",46.4917500021363,11.3413200021448
"ANGOLO MORETTI RISTORANTE PIZZERIA","RISTORANTE / PIZZERIA","MAI","VIA TORINO, 1",39100,"BOLZANO","BZ",46.4917500021363,11.3413200021448
"ANGOLO 40 BAR","BAR TAVOLA FREDDA","MAI","V. C. AUGUSTA, 40/B",39100,"BOLZANO","BZ",46.4876350000001,11.3436766670001
"ANITA BAR RISTORANTE","RISTORANTE","MAI","PIAZZA DELLE ERBE, 5",39100,"BOLZANO","BZ",46.5001599846874,11.353269997683
"ANMOL PIZZA KEBAB","TAKE AWAY / PIZZ. ASPORTO","MAR","V. MERCATO VECCHIO, 28",39042,"BRESSANONE","BZ",46.7186300161847,11.6569399794829
"ANNA & ROBBY RISTORANTE PIZZERIA","RISTORANTE / PIZZERIA","DOM","VIA GALILEO GALILEI, 38",39100,"BOLZANO","BZ",46.4857400099215,11.3329400268071
"ANNA E ROBY","RISTORANTE","MAI","VIA GALILEO GALILEI, 38",39100,"BOLZANO","BZ",46.4857400099215,11.3329400268071
"ANNY RISTORANTE","RISTORANTE","XXX","VIA PALADE, 29",39020,"MARLENGO","BZ",46.6539399962192,11.1466600239029
"AQUARIUM BAR","BAR TAVOLA CALDA","DOM","PIAZZA MERCATO, 23",39043,"CHIUSA","BZ",46.6443300185,11.5710900125891
"AR SUPERMERCATO","MARKET CON GASTR./SUPERMERCATO","DOM","VIA KIRCHDORF, 83",39030,"PREDOI","BZ",47.0383800086744,12.1031599827591
"ARENA BAR RISTORANTE","RISTORANTE / PIZZERIA","MAI","STRADA ZABERBACH, 15",39054,"RENON","BZ",46.5382600093904,11.4547399764204
"ARGENTARIUM HOTEL RISTORANTE PIZZERIA","RISTORANTE / PIZZERIA","LUN","VIA FLERES, 17",39041,"BRENNERO","BZ",46.9384800023113,11.4398900100216
"ARGENTIERI HOSTARIA RISTORANTE","RISTORANTE / PIZZERIA","DOM","VIA ARGENTIERI, 14",39100,"BOLZANO","BZ",46.4991300164252,11.353790010956
"ARISTON RISTORANTE PIZZERIA","RISTORANTE / PIZZERIA","GIO","PIAZZA MUNICIPIO, 2",39034,"DOBBIACO","BZ",46.73567998071,12.2224499714665
"ARMA MENSA KLA","MENSA RISERVATA","MAI","VIA JOSEF FERRARI, 12",39031,"BRUNICO","BZ",46.7899499958334,11.9311899840511
"ASIA POINT RISTORANTE","RISTORANTE / PIZZERIA","MAI","VIA DELLE PALADE, 140",39012,"MERANO","BZ",46.656619984031,11.1480499949064
"ASIA RISTORANTE","RISTORANTE","MAI","V. PURGER 181",39046,"ORTISEI","BZ",46.5746800073305,11.6588799709728
"ASIAN SPESE","MARKET CON GASTR./SUPERMERCATO","MAI","VIA GIUSEPPE GARIBALDI, 24",39100,"BOLZANO","BZ",46.495499981798,11.3560500235092
"AUGUSTINER IN MERAN","RISTORANTE","XXX","VIA PORTICI, 266",39012,"MERANO","BZ",46.6721000180916,11.1604500148261
"AURA RISTORANTE PIZZERIA","RISTORANTE / PIZZERIA","DOM","VIA NAZIONALE, 44",39040,"ORA","BZ",46.3476999971772,11.2984599784475
"AUTOCITY BISTRO'","RISTORANTE","XXX","VIA LUIGI GALVANI, 1",39100,"BOLZANO","BZ",46.4788899833704,11.3345299900205
"BAECKEREI GRAZIADEI","GASTRONOMIA/ROSTICCERIA","DOM","PIAZZA GILM, 1",39031,"BRUNICO","BZ",46.7964199868946,11.9373200051195
"BAHNHOFSCAFE'","BAR TAVOLA FREDDA","MAI","VIA STAZIONE, 1",39028,"SILANDRO","BZ",46.6262000038411,10.766599974952
"BAKEREI STAMPFL","GASTRONOMIA/ROSTICCERIA","MAI","VIA RATISBONA, 14",39042,"BRESSANONE","BZ",46.715450005939,11.6546399852515
"BALNEUM BAR BISTRO","BAR TAVOLA CALDA","MAI","PIAZZA KARL RIEDMANN, 5",39049,"VIPITENO","BZ",46.8933999896484,11.438449999056
"BAMBI BAR RISTORANTE","RISTORANTE / PIZZERIA","DOM","LOCALITA' SOLDA DI FUORI, 11",39029,"STELVIO","BZ",46.5696294087237,10.5563884848796
"BAMBUS RISTORANTE","RISTORANTE","MAI","RIO NERO, 4",39040,"ORA","BZ",46.3419700024379,11.2905300274913
"BAR ALEX'S PUB","BAR TAVOLA CALDA","DOM","VIA EDUARD PLONER, 14",39049,"VIPITENO","BZ",46.8986800019157,11.4275700372772
"BAR BISTRO","BAR TAVOLA CALDA","S&D","VICOLO GUMER, 7",39100,"BOLZANO","BZ",46.4991099836766,11.356059997974
"BAR BISTRO' AMARCORD","BAR TAVOLA CALDA","MAI","P.ZA DELLE ERBE, 38",39100,"BOLZANO","BZ",46.5000099905301,11.3526400138404
"BAR BISTRO BRIGITTE","RISTORANTE","XXX","VIA CALDARO, 6",39057,"APPIANO SULLA STRADA DEL VINO","BZ",46.445109991564,11.2609099742309
"BAR CAFFE' KACHLER","BAR TAVOLA CALDA","DOM","VIA GREMSEN, 27",39031,"BRUNICO","BZ",46.815259990662,11.9322999994887
"BAR CLAUDIA","BAR","XXX","VIA CLAUDIA AUGUSTA, 4",39100,"BOLZANO","BZ",46.4881299838834,11.3460199867124
"BAR DEL COMUNE","BAR TAVOLA CALDA","S&D","V.LO GUMMER, 7",39100,"BOLZANO","BZ",46.4991099836766,11.356059997974
"BAR DEL CORSO RISTORANTE PIZZERIA","RISTORANTE / PIZZERIA","DO","PIAZZA DELLA VITTORIA, 44",39100,"BOLZANO","BZ",46.5011099895933,11.3436800108029
"BAR ELENA","BAR TAVOLA FREDDA","MAI","V. ROMA, 1/D",39042,"BRESSANONE","BZ",46.7167800044253,11.65418996087
"BAR FIRMIAN","BAR TAVOLA FREDDA","XXX","VIA RESIA, 61",39100,"BOLZANO","BZ",46.4886499971564,11.3178299699527
"BAR HOTEL RISTORANTE PIZZERIA DA CARLOS","RISTORANTE","MAI","VIA JOHN FITZGERALD KENNEDY, 280",39055,"LAIVES","BZ",46.4208999957987,11.3318900257963
"BAR IGLOO RISTORANTE PIZZERIA","RISTORANTE / PIZZERIA","LUN","VIA MITTERECK, 5",39037,"RIO DI PUSTERIA","BZ",46.8218599850414,11.6649199704011
"BAR INTERNO IST. MAX VALIER","BAR TAVOLA FREDDA","S&D","VIA SORRENTO, 20",39100,"BOLZANO","BZ",46.4940300055286,11.3277200289665
"BAR INTERNO LICEO SCIENZE UMANE E ARTISTICO IN L.I","BAR TAVOLA CALDA","MAI","VIA GRAZIA DELEDDA, 4",39100,"BOLZANO","BZ",46.4935500158433,11.3135299698047
"BAR INTERNO OSPEDALE DI BOLZANO","BAR TAVOLA FREDDA","MAI","VIA LORENZ BOEHLER, 5",39100,"BOLZANO","BZ",46.4988799842535,11.3088100363076
"BAR INTERNO OSPEDALE DI BOLZANO","BAR TAVOLA FREDDA","MAI","VIA LORENZ BOEHLER, 5",39100,"BOLZANO","BZ",46.4988799842535,11.3088100363076
"BAR JOBEN","BAR TAVOLA FREDDA","MAI","V. ALESSANDRIA, 33",39100,"BOLZANO","BZ",46.4875800053066,11.3239800237696
"BAR MARY","BAR TAVOLA FREDDA","DO","VIA RENON, 39",39100,"BOLZANO","BZ",46.4999400016386,11.3636899606156
"BAR MENSA SCUOLA PROFESSIONALE","MENSA","MAI","VIA ROMA, 20",39100,"BOLZANO","BZ",46.4926300181507,11.3410599955083
"BAR MORIZZINO","BAR TAVOLA FREDDA","DOM","V. LEONARDO DA VINCI, 6",39100,"BOLZANO","BZ",46.499020003946,11.3507400040286
"BAR PIZZERIA BAHNHOF","RISTORANTE / PIZZERIA","MAR","VIA STAZIONE, 10",39038,"SAN CANDIDO","BZ",46.7324099907337,12.2722000033931
"BAR RAFFIN","BAR TAVOLA FREDDA","DOM","VIA MICHAEL PACHER, 5",39031,"BRUNICO","BZ",46.7946099987228,11.934409975975
"BAR REST.SPORTBAR","BAR TAVOLA CALDA","MAI","VIA ROMA, 110",39014,"POSTAL","BZ",46.6023000127647,11.1979199718674
"BAR RISTORANTE GRANO","RISTORANTE","XXX","VIA MAINARDO, 5",39012,"MERANO","BZ",46.6725199933502,11.158329980056
"BAR RISTORANTE MODERNO","RISTORANTE","XXX","VIA ROMA, 76",39100,"BOLZANO","BZ",46.4907399828037,11.3418199826692
"BAR RISTORANTE PIZZERIA MING XUAN GE","RISTORANTE","MAI","VIA CASSA DI RISPARMIO, 20",39100,"BOLZANO","BZ",46.4986400103656,11.3490399864265
"BAR RISTORANTE S.SERVICE AIRPORT","RISTORANTE","","VIA AEROPORTO F BARACCA, 1",39100,"BOLZANO","BZ",46.4663478614484,11.3309535298948
"BAR RISTORO ARUNDA","RISTORANTE","DOM","V. JOHANN WOLFGANG GOETHE, 5/A",39012,"MERANO","BZ",46.6748300039558,11.1564299702441
"BAR RISTORO LE MONELLE","RISTORANTE","DOM","V. RESIA, 28/C",39100,"BOLZANO","BZ",46.4881000185796,11.3157500006797
"BAR ROXY","BAR TAVOLA FREDDA","MAI","VIA CESARE BATTISTI, 5",39100,"BOLZANO","BZ",46.5002300154885,11.3416499976728
"BAR SPORT RISTORANTE PIZZERIA","RISTORANTE / PIZZERIA","LUN","VIA GEIZKOFLER, 8",39049,"VIPITENO","BZ",46.8985499985975,11.4323400107363
"BAR STEFANER","BAR TAVOLA FREDDA","DOM","V. PIANI DI BOLZANO, 23",39100,"BOLZANO","BZ",46.4963999886515,11.3626200106752
"BAR TOM","BAR TAVOLA FREDDA","DOM","V. G.PUCCINI, 30",39100,"BOLZANO","BZ",46.4926699998289,11.3133999664865
"BAR TORRE","BAR TAVOLA CALDA","MAI","VIA SASSARI, 31",39100,"BOLZANO","BZ",46.4884899866248,11.3207099918838
"BAR ZONA","BAR TAVOLA CALDA","DO","VIA ENZO FERRARI, 41",39100,"BOLZANO","BZ",46.4762099955586,11.3343500305593
"BARCODE BAR","BAR TAVOLA CALDA","MAI","VIA CLAUDIA AUGUSTA, 37",39100,"BOLZANO","BZ",46.4840899903719,11.3439000357612
"BARIN CAFFETTERIA","BAR TAVOLA FREDDA","DOM","V. DUCA D'AOSTA, 107",39100,"BOLZANO","BZ",46.4960500022844,11.3398799911793
"BASILICUM BISTRO","BAR TAVOLA CALDA","SAB","PIAZZA PRINCIPALE, 6",39040,"ORA","BZ",46.3481299888101,11.2985500000876
"BATZENHAUSL CA' DE BEZZI","RISTORANTE","XXX","VIA ANDREAS HOFER, 30",39100,"BOLZANO","BZ",46.5013199981774,11.357430020048
"BAUZANUM RISTORANTE","RISTORANTE","MAI","VIA DEL MACELLO, 32",39100,"BOLZANO","BZ",46.4936599864129,11.3617199619122
"BELLA CINA RISTORANTE","RISTORANTE / PIZZERIA","MAI","VIA DANTE ALIGHIERI, 13",39042,"BRESSANONE","BZ",46.7158600067328,11.6519199738521
"BELLA CINA RISTORANTE","RISTORANTE / PIZZERIA","MAI","VIA SAN LORENZO, 8",39031,"BRUNICO","BZ",46.7929699955475,11.9301399830403
"BELLA NAPOLI RISTORANTE PIZZERIA","RISTORANTE / PIZZERIA","MAI","PIAZZETTA ANNA FRANK, 13",39100,"BOLZANO","BZ",46.481509998665,11.3183700159743
"BELTRAMI SERVIZI BAR","TAVOLA CALDA","","VIA KENNEDY",39055,"LAIVES","BZ",46.4290593071255,11.3428729432362
"BEMELMANS HOTEL RISTORANTE","RISTORANTE","SAB","VIA DORFSTRASSE, 8",39054,"RENON","BZ",46.5374700150161,11.4642400254795
"BENE FELICITA' RISTORANTE CINESE RISTORANTE PIZZERIA","RISTORANTE / PIZZERIA","MAI","VIA JOSEF FERRARI, 26",39031,"BRUNICO","BZ",46.7900799991517,11.929019993138
"BENETTI CAFE'","BAR TAVOLA FREDDA","DOM","VIA NAPOLI, 9",39100,"BOLZANO","BZ",46.4930300025703,11.34325001917
"BENTO RISTORANTE","RISTORANTE","DO","VIA DEI GRAPPOLI, 21",39100,"BOLZANO","BZ",46.4988400025753,11.3569899701313
"BENVE BAR","BAR TAVOLA CALDA","MAI","P.ZA WALTER, 8/C",39100,"BOLZANO","BZ",46.4876350000001,11.3436766670001
"BENVE BAR","BAR TAVOLA FREDDA","MAI","PIAZZA W VON DER VOGELWEIDE, 8",39100,"BOLZANO","BZ",46.4981100000001,11.35441
"BERGHOTEL RISTORANTE","RISTORANTE / PIZZERIA","MAI","STRADA RACINES DI DENTRO, 43",39040,"RACINES","BZ",46.8668299568191,11.3076006845791
"BIC BAR","BAR TAVOLA FREDDA","MAI","VIA WERNER VON SIEMENS, 19",39100,"BOLZANO","BZ",46.4822600113611,11.3302299898724
"BIC SELF ARMA 2","SELF-SERVICE","S&D","VIA WERNER VON SIEMENS, 19",39100,"BOLZANO","BZ",46.4822600113611,11.3302299898724
"BIG BEN TAVOLA CALDA","BAR TAVOLA CALDA","DOM","VIA VILPIANO, 26",39010,"NALLES","BZ",46.5520199931003,11.2128400109768
"BIKA BISTRO'","BAR TAVOLA CALDA","DOM","VIA SAN LORENZO, 18",39031,"BRUNICO","BZ",46.7923400117049,11.9287800192501
"BIKER STOP BAR","BAR TAVOLA CALDA","DOM","VIA ANTONIO PACINOTTI, 4",39100,"BOLZANO","BZ",46.4847499814279,11.3319200330097
"BINDER'S CAFE'","BAR TAVOLA FREDDA","MAI","VIA DEI BOTTAI, 22",39100,"BOLZANO","BZ",46.5003699932715,11.35671998903
"BINTA RISTORANTE PIZZERIA","RISTORANTE / PIZZERIA","MAI","VIA CASIES, 2/A",39030,"VALLE DI CASIES","BZ",46.7723831813778,12.1912522905186
"BIO VERDE","GASTRONOMIA/ROSTICCERIA","MAI","VIA DAMIANO CHIESA, 1",39055,"LAIVES","BZ",46.4278799837585,11.337389979203
"BISTRO AGORA RISTORANTE PIZZERIA","RISTORANTE / PIZZERIA","DOM","VIA DI MEZZO AI PIANI, 7",39100,"BOLZANO","BZ",46.495360004015,11.3704399910618
"BISTRO' AGORA RISTORANTE SELF SERVICE","TRATTORIA","XXX","VIA LOUIS BRAILLE, 1",39100,"BOLZANO","BZ",46.4741700079637,11.329260036037
"BISTRO AL FORTE BAR RISTORANTE","RISTORANTE / PIZZERIA","LUN","VIA BRENNERO, 0",39045,"FORTEZZA","BZ",46.7913669196302,11.61069169098
"BISTRO AM BAHND'L","RISTORANTE / PIZZERIA","MAI","VIA RENON, 10",39100,"BOLZANO","BZ",46.4992500033692,11.3637700077909
"BISTRO ATRIUM BAR","BAR TAVOLA CALDA","DOM","V. STAZIONE, 14",39042,"BRESSANONE","BZ",46.715450005939,11.6546399852515
"BISTRO AVANTI","RISTORANTE / PIZZERIA","MAI","VIA LORIS MUSY, 1",39100,"BOLZANO","BZ",46.4674375396805,11.3301583136979
"BISTRO CRISPI BAR","BAR TAVOLA CALDA","XXX","VIA FRANCESCO CRISPI, 15",39100,"BOLZANO","BZ",46.4987799881486,11.3592400082197
"BISTRO' DALMAZIA BAR","BAR TAVOLA CALDA","LUN","V. DALMAZIA, 39/A",39100,"BOLZANO","BZ",46.4915200027132,11.3382799696821
"BISTRO' EGETMANN","RISTORANTE","DOM","VIA STEINACKER, 27",39040,"TERMENO SULLA STRADA DEL VINO","BZ",46.3343399978868,11.2455600273076
"BISTRO GALILEO MENSA","MENSA","XXX","VIA GALILEO GALILEI, 2",39100,"BOLZANO","BZ",46.4871846104183,11.3417245383988
"BISTRO' GALLERY BAR","BAR TAVOLA FREDDA","XXX","VIA AMBA ALAGI, 26",39100,"BOLZANO","BZ",46.4985900123131,11.341359983823
"BISTRO' GAMBRINUS BAR","TRATTORIA","SAB","VIALE AMEDEO DUCA D'AOSTA, 21",39100,"BOLZANO","BZ",46.5005900182298,11.3366999809335
"BISTRO HELLWEGER'S","RISTORANTE / PIZZERIA","DOM","PIAZZA DUOMO, 30",39012,"MERANO","BZ",46.6712500092905,11.1643900122328
"BISTRO' LE SOMMELIER BAR","BAR TAVOLA CALDA","DOM","P.ZA MUNICIPIO, 5",39031,"BRUNICO","BZ",46.7962800091115,11.9359499830454
"BISTRO LISZT RISTORANTE","RISTORANTE / PIZZERIA","GIO","CORSO DELLA LIBERTA', 49",39012,"MERANO","BZ",46.6710000190283,11.1613899614482
"BISTRO MAIRES SELF SERVICE","SELF-SERVICE","MAI","VIA EUROPA, 3",39031,"BRUNICO","BZ",46.795360011419,11.9308699629879
"BISTRO' MERANCENTER BAR","BAR TAVOLA CALDA","S&D","V. A. KUPERION, 30/C/D",39012,"MERANO","BZ",46.6525400088413,11.158659975584
"BISTRO MIKO BAR","BAR TAVOLA CALDA","XXX","VIA PILLHOF, 3",39057,"APPIANO SULLA STRADA DEL VINO","BZ",46.478719998374,11.2810999673238
"BISTRO MOZART BAR","BAR TAVOLA CALDA","DO","VIA KARL WOLF, 73",39012,"MERANO","BZ",46.6789099791455,11.1531900293907
"BISTRO PORTIKUS BAR","BAR TAVOLA CALDA","MAI","VIA PORTICI, 32",39044,"EGNA","BZ",46.3128299807724,11.2713799771254
"BISTRO' ROMANTIK","RISTORANTE","MAI","VIC. DELLA PARROCCHIA 2",39100,"BOLZANO","BZ",46.4989629231854,11.353560346809
"BISTRO' TAPAS BAR","BAR TAVOLA CALDA","DOM","VIA SANTA CROCE, 2",39042,"BRESSANONE","BZ",46.7159499864634,11.6545600218952
"BISTRO UNIVERSAL BAR","BAR TAVOLA CALDA","S&D","VIA VITTORIO VENETO, 67",39042,"BRESSANONE","BZ",46.6999299902003,11.6468400376136
"BISTRO VICINO BARBZ","BAR TAVOLA CALDA","DO","VIA DOTTOR JULIUS PERATHONER, 19",39100,"BOLZANO","BZ",46.4967899986062,11.3556900207678
"BISTRO 12 BAR","BAR TAVOLA CALDA","XXX","VIA CASSA DI RISPARMIO, 12",39100,"BOLZANO","BZ",46.5003399860581,11.3492500369201
"BISTRO 20 RISTORANTE","RISTORANTE / PIZZERIA","DOM","VIA GALILEO GALILEI, 20",39100,"BOLZANO","BZ",46.4864600154042,11.3369200058919
"BISTROT GIESSER","BAR TAVOLA CALDA","MAI","FRAZIONE MULES, 92",39040,"CAMPO DI TRENS","BZ",46.854455020103,11.522920820586
"BISTROT SPORT ARENA BAR RISTORANTE","RISTORANTE / PIZZERIA","MAI","GANSBODEN, 14",39015,"SAN LEONARDO IN PASSIRIA","BZ",46.8158300019875,11.2411799799843
"BIWAK RISTORANTE PIZZERIA","RISTORANTE / PIZZERIA","XXX","VIA BRENNERO, 12",39049,"VIPITENO","BZ",46.9041400155537,11.4295999665883
"BLACK & WHITE BAR RISTORANTE","RISTORANTE","DOM","V.LE RATISBONA, 14",39042,"BRESSANONE","BZ",46.715450005939,11.6546399852515
"BLITZBURG HOTEL RISTORANTE","RISTORANTE","MAI","VIA EUROPA, 10",39031,"BRUNICO","BZ",46.7951500028349,11.9319399967473
"BLONDY BAR","BAR TAVOLA FREDDA","DOM","C.SO LIBERTA', 31",39100,"BOLZANO","BZ",46.5013000073383,11.3415199943546
"BLUBAR","BAR TAVOLA CALDA","XXX","VIA SAN VIGILIO, 52",39100,"BOLZANO","BZ",46.4867600037189,11.3487300236471
"BLUMAU RISTORANTE PIZZERIA","RISTORANTE / PIZZERIA","XXX","VIA ROMA, 45",39012,"MERANO","BZ",46.6645200115929,11.1614900413721
"BOLOGNA HOTEL RISTORANTE","RISTORANTE / PIZZERIA","DOM","VIA LEONARDO DA VINCI, 1",39031,"BRUNICO","BZ",46.7947099948277,11.9353999625591
"BOLZANO CHIOSCO BAR","BAR TAVOLA FREDDA","XXX","PIAZZA DELLA STAZIONE, 12",39100,"BOLZANO","BZ",46.4969399927635,11.3589499943699
"BOLZANO UNITED BAR","BAR TAVOLA FREDDA","MAI","VIA DELLA MENDOLA, 21",39100,"BOLZANO","BZ",46.4997799911069,11.3391500112317
"BOTTEGA DEL CAFFE' DERSUT","BAR TAVOLA CALDA","DOM","VIA RATISBONA, 6",39042,"BRESSANONE","BZ",46.7157600106279,11.6546799669297
"BOTTEGA LIBERA DEI SAPORI E DEI SAPERI BAR","BAR TAVOLA FREDDA","DOM","CORSO DELLA LIBERTA', 16",39100,"BOLZANO","BZ",46.5038600082061,11.3339099806426
"BOULEVARD RISTORANTE","RISTORANTE","DOM","VIA JULIUS DURST, 44",39042,"BRESSANONE","BZ",46.6954600050558,11.6453899683642
"BRASSERIE 1857 BAR","BAR TAVOLA CALDA","S&D","PIAZZA FIERA, 1",39100,"BOLZANO","BZ",46.4725699864666,11.3256600086231
"BRAUGARTEN FORST RISTORANTE","RISTORANTE","MAI","VIA VAL VENOSTA, 9",39022,"LAGUNDO","BZ",46.6774942143263,11.1195403632788
"BRAUHAUS HOTEL MARTINERHOF RISTORANTE PIZZERIA","RISTORANTE / PIZZERIA","LUN","VIA DEL GIOVO, 15",39010,"SAN MARTINO IN PASSIRIA","BZ",46.7863000122767,11.2307300098383
"BREAK BY EDO RISTORANTE PIZZERIA","RISTORANTE / PIZZERIA","DO","VIA BASTIONI MAGGIORI, 25",39042,"BRESSANONE","BZ",46.7169900130094,11.6557100190109
"BREAK STATION","BAR TAVOLA CALDA","MAI","VIA VITTORIO VENETO, 26",39042,"BRESSANONE","BZ",46.7096200150948,11.6515100149678
"BRENNERPUB","BAR TAVOLA FREDDA","MAI","V. RENON, 29",39100,"BOLZANO","BZ",46.4984699834597,11.3611599669611
"BRIGITTE CAFE'","BAR TAVOLA FREDDA","MAR","VIA CALDARO, 6",39057,"APPIANO SULLA STRADA DEL VINO","BZ",46.445109991564,11.2609099742309
"BRIMI SHOP BAR","BAR TAVOLA FREDDA","DOM","VIA KONRAD LECHNER, 4",39040,"VARNA","BZ",46.7307445563172,11.6519211710433
"BRIXENHOF RISTORANTE PIZZERIA","RISTORANTE / PIZZERIA","XXX","VIA PLOSE, 2",39042,"BRESSANONE","BZ",46.7128799886968,11.661330001271
"BRIXNA BISTRO' BAR","BAR TAVOLA CALDA","DOM","VIA BRENNERO, 58",39042,"BRESSANONE","BZ",46.7274300086905,11.6530999781811
"BRUGGENWURT RISTORANTE PIZZERIA","RISTORANTE / PIZZERIA","MAP","VIA JOSEF ANTON ZOLLER, 14",39030,"VANDOIES","BZ",46.8158900164142,11.7199999707378
"BRUNNER PLATZ RISTORANTE","RISTORANTE / PIZZERIA","XXX","VIA DANTE ALIGHIERI, 2",39012,"MERANO","BZ",46.6689200078458,11.1739199846862
"BRUNNERHOF HOTEL RISTORANTE","RISTORANTE / PIZZERIA","MAI","FRAZIONE RASUN DI SOTTO, 104",39030,"RASUN ANTERSELVA","BZ",46.7764700095991,12.0446800310373
"BRUNNERHOF RISTORANTE BAR ALBERGO","RISTORANTE / PIZZERIA","DOM","VIA GRIES, 19",39043,"CHIUSA","BZ",46.6455899861853,11.5843999719175
"BUFFET BOLZANO SNACK BAR","BAR TAVOLA FREDDA","XXX","PIAZZA DELLA STAZIONE, 12",39100,"BOLZANO","BZ",46.4969399927635,11.3589499943699
"BUFFET DELLA STAZIONERANTE PIZZERIA BAR","BAR TAVOLA FREDDA","MAI","VIA KARL VON ETZEL, 7",39041,"BRENNERO","BZ",47.0028500012135,11.5051100177249
"BUON APPETITO INTERNAZIONALE MENSA","MENSA RISERVATA","MAI","VIA PETER ANICH, 5",39011,"LANA","BZ",46.628779995548,11.1698499839613
"BUONGUSTAIO GASTRONOMIA","GASTRONOMIA/ROSTICCERIA","DO","VIA PALERMO, 61",39100,"BOLZANO","BZ",46.4902700094927,11.3320699852575
"BURGER KING SOUTH FAST FOOD","FAST FOOD","MAI","PIAZZA DOMENICANI, 4",39100,"BOLZANO","BZ",46.4973600099317,11.3524499960954
"BURGERSTUBE MENSA","MENSA RISERVATA","MAI","LOCALITA' TELFEN-LANZIN, 59",39040,"CASTELROTTO","BZ",46.5569099954129,11.5531900392627
"BUSCHENHANS TRATTORIA","TRATTORIA","LUN","VIA PRINCIPALE, 24",39018,"TERLANO","BZ",46.5303300165247,11.2477399926855
"BYBLO'S  RISTORANTE","RISTORANTE / PIZZERIA","XXX","VIA MERCATO VECCHIO, 23",39042,"BRESSANONE","BZ",46.7184799801179,11.6564399989585
"CA' BIANCA TRATTORIA RISTORANTE PIZZERIA","RISTORANTE / PIZZERIA","DOM","VIA JOHN FITZGERALD KENNEDY, 202",39055,"LAIVES","BZ",46.4254299953698,11.3352299627546
"CAFE'  MUHLBACH RISTORANTE PIZZERIA","RISTORANTE / PIZZERIA","MAR","VIA MOLINI, 5",39010,"ANDRIANO","BZ",46.6404699844497,11.1418100032684
"CAFE' BISTRO CAPUCCINO","BAR TAVOLA CALDA","DOM","V. MADONNA DEL SUFFRAGIO, 16",39011,"LANA","BZ",46.6165199811001,11.1451363574618
"CAFE' BRENNPUNKT RISTORANTE","RISTORANTE / PIZZERIA","XXX","VIA BRENNERO, 7",39100,"BOLZANO","BZ",46.5007600032262,11.361210006923
"CAFE' CITY BAR","BAR TAVOLA CALDA","MAI","VIA BASTIONI MAGGIORI, 20",39042,"BRESSANONE","BZ",46.7171599980058,11.6556400301194
"CAFE' DEL MAR","BAR TAVOLA FREDDA","DOM","V. MENDOLA, 21/A",39100,"BOLZANO","BZ",46.4999299852643,11.3390500151268
"CAFE ERIKA BAR","BAR TAVOLA FREDDA","XXX","VIA PARROCCHIA, 2",39032,"CAMPO TURES","BZ",46.9095799964432,11.9487499873846
"CAFE' FRIEDA BAR","BAR TAVOLA CALDA","DOM","VIA DANTE ALIGHIERI, 66",39042,"BRESSANONE","BZ",46.7211999915173,11.6501000112156
"CAFE IM RATHAUS","BAR TAVOLA CALDA","MAI","VIA MUNICIPIO, 1",39031,"BRUNICO","BZ",46.7965499902128,11.9356000385879
"CAFE' IMBISS MARION","BAR TAVOLA CALDA","LUN","VIA KAMPIDELL, 1/A",39050,"SAN GENESIO ATESINO","BZ",46.58699000561,11.2974699918635
"CAFE' MASCHIN BAR","BAR TAVOLA CALDA","DOM","VIA LAURIN, 2",39100,"BOLZANO","BZ",46.4984100109425,11.3568299595997
"CAFE MUSEION BAR","BAR TAVOLA CALDA","MAI","PIAZZA PIERO SIENA, 3",39100,"BOLZANO","BZ",46.4974100079841,11.3482000359093
"CAFE NIESSING","BAR TAVOLA CALDA","XXX","VIA CATINACCIO, 1",39100,"BOLZANO","BZ",46.4994800027923,11.3595900364963
"CAFE' PALAIS BAR","BAR TAVOLA CALDA","MAI","PIAZZA DELLA RENA, 10",39012,"MERANO","BZ",46.6703399860628,11.1653000354605
"CAFE PICHLER BAR","BAR TAVOLA CALDA","XXX","VIA OTTONE HUBER, 82",39012,"MERANO","BZ",46.6567650000001,11.1786332720001
"CAFE' PREROMAN","BAR TAVOLA CALDA","DO","VIA PREROMAN, 2",39030,"SAN MARTINO IN BADIA","BZ",46.6747530709174,11.9019131666179
"CAFE' RAIFFEISEN","BAR TAVOLA FREDDA","XXX","VIA RAIFFEISEN, 2",39100,"BOLZANO","BZ",46.4982600167851,11.3597200398146
"CAFE RAIFFEISEN","BAR TAVOLA CALDA","DOM","VIA RAIFFEISEN, 4",39100,"BOLZANO","BZ",46.4979700029353,11.3597399887441
"CAFE' RESTAUR.GRUNER","RISTORANTE / PIZZERIA","GIO","FRAZIONE CERTOSA, 24",39020,"SENALES","BZ",46.7050799991493,10.9101900229744
"CAFE ROYAL BAR TF","BAR TAVOLA CALDA","DOM","VIA VITTORIO VENETO, 15",39100,"BOLZANO","BZ",46.5025300097198,11.3316499680894
"CAFE THEIS BAR","BAR TAVOLA CALDA","LUP","VIA PASSIRIA, 19",39015,"SAN LEONARDO IN PASSIRIA","BZ",46.8123000053746,11.2470100127379
"CAFE' TIEFENBRUN","BAR TAVOLA FREDDA","DOM","VIA MAINARDO, 10",39012,"MERANO","BZ",46.6726100149903,11.1585199978009
"CAFE' WALTER","RISTORANTE / PIZZERIA","LUN","PIAZZA VON FERRARI, 8",39051,"BRONZOLO","BZ",46.4036999952065,11.322500031126
"CAFE'CAPPUCCINO BAR","BAR TAVOLA CALDA","DOM","VIA HOFMAN, 4",39011,"LANA","BZ",46.6170499830586,11.1453400417908
"CAFE'ULTNER BAR","BAR TAVOLA FREDDA","MAI","FRAZIONE SANTA VALBURGA, 114",39016,"ULTIMO","BZ",46.548300020652,11.0047499607339
"CAFFE' AL VOLO BAR","BAR TAVOLA CALDA","DOM","VIA LUIGI GALVANI, 29",39100,"BOLZANO","BZ",46.4719799843021,11.3311700203136
"CAFFE ALL'ANGOLO BAR","BAR TAVOLA CALDA","DOM","VIA PIANI D' ISARCO, 9/A",39100,"BOLZANO","BZ",46.4985999867779,11.3670500141415
"CAFFE' BRISTO 2000 BAR","BAR TAVOLA FREDDA","MAI","VIALE AMEDEO DUCA D'AOSTA, 91",39100,"BOLZANO","BZ",46.4964199794905,11.3393999595844
"CAFFE EPULARIO","BAR TAVOLA CALDA","MAI","VIA DELLA RENA, 1",39100,"BOLZANO","BZ",46.4984400181558,11.3567400217786
"CAFFE' HEISS BAR","BAR TAVOLA FREDDA","MAR","VIA PLOSE, 26",39042,"BRESSANONE","BZ",46.7093400176192,11.661520019016
"CAFFE IRIS BAR","BAR TAVOLA CALDA","S&D","VIA CASSA DI RISPARMIO, 1",39100,"BOLZANO","BZ",46.5012300184468,11.3501299691154
"CAFFE' PASSION","BAR TAVOLA FREDDA","MAI","GALLERIA RAFFAELLO SERNESI, 27",39100,"BOLZANO","BZ",46.4985199815121,11.3513300061931
"CAFFE' PASTICCERIA ZINGERLE  RISTORANTE","RISTORANTE","MAI","VIALE DRUSO, 49",39100,"BOLZANO","BZ",46.4949099796335,11.3397100061829
"CAFFE PLATZL PIZZERIA","RISTORANTE / PIZZERIA","SAB","VIA SANTA CROCE, 4",39031,"BRUNICO","BZ",46.7952600153141,11.9257300123226
"CAFFE' RAIFFEISEN ONOTHEK","BAR TAVOLA FREDDA","DOM","V. RAIFFEISEN, 4",39100,"BOLZANO","BZ",46.4979700029353,11.3597399887441
"CAFFE' REAL BAR","BAR TAVOLA CALDA","DOM","VIALE DUCA AMEDEO D' AOSTA, 103",39100,"BOLZANO","BZ",46.4960500022844,11.3395899773294
"CAFFE RIZ BAR","BAR TAVOLA CALDA","MAI","PIAZZA DOMENICANI, 38",39100,"BOLZANO","BZ",46.4979299793476,11.3520599861406
"CAFFE' ROSE RISTORANTE","RISTORANTE / PIZZERIA","LUN","VIA STAZIONE, 1",39049,"VIPITENO","BZ",46.8964900201636,11.4323499852011
"CAFFE' ROSMINI","BAR TAVOLA CALDA","MAI","V. ROSMINI, 83",39100,"BOLZANO","BZ",46.4993699903131,11.347740037063
"CAFFE' ROSSI","BAR TAVOLA FREDDA","XXX","VIA CITTA' NUOVA, 27",39049,"VIPITENO","BZ",46.8976400172793,11.4317800157851
"CAFFE' SELTZ BAR","BAR TAVOLA FREDDA","DOM","PASSAGGIO ANTICO MUNICIPIO, 5",39100,"BOLZANO","BZ",46.4876350000001,11.3436766670001
"CAFFE' THEINER","BAR TAVOLA CALDA","MAI","VIA MUSEO, 62",39100,"BOLZANO","BZ",46.5001700010617,11.3483000320142
"CAIPIRA CAFFE' BAR","BAR TAVOLA FREDDA","MAI","VIA CESARE BATTISTI, 78",39100,"BOLZANO","BZ",46.5004499985373,11.3368299842518
"CAMPER E CARAVAN AREA DI SOSTA","BAR TAVOLA CALDA","MAI","VIA PRATO ALLA DRAVA, 1",39038,"SAN CANDIDO","BZ",46.7397700141835,12.3676699643804
"CAMPER E CARAVAN AREA DI SOSTA","BAR TAVOLA CALDA","MAI","VIA DOLOMITI, 20",39034,"DOBBIACO","BZ",46.725660002197,12.2227999997431
"CANCUN BAR RISTORANTE MEXICANO","RISTORANTE","DOM","V. SAN QUIRINO, 35",39100,"BOLZANO","BZ",46.4966500208232,11.3441899657921
"CAPASA BAR BISTRO","BAR TAVOLA CALDA","XXX","VIA MERCATO VECCHIO, 10",39042,"BRESSANONE","BZ",46.7178600126495,11.6569699866963
"CAPOLINEA","BAR TAVOLA FREDDA","LUN","VIA MILANO, 100",39100,"BOLZANO","BZ",46.4900799917476,11.329209996075
"CAPPELLO DI FERRO RISTORANTE","RISTORANTE","MAI","VIA DEI BOTTAI, 21",39100,"BOLZANO","BZ",46.5004899802154,11.3568499923483
"CAPRICCIO BAR RISTORANTE","RISTORANTE","MAI","VIA PLOSE, 35",39042,"BRESSANONE","BZ",46.7080600171853,11.6615800334427
"CARAVAN ARQUIN FREIZEITPARK SRL","UFFICIO","MAI","VIA CHIESA, 17",39011,"LANA","BZ",46.6074599961785,11.1570199724087
"CARDUCCI BAR","BAR TAVOLA CALDA","MAI","VIA GIOSUE' CARDUCCI, 3",39100,"BOLZANO","BZ",46.4970500052427,11.3505400118188
"CAREGNATO RISTORANTE PIZZERIA","RISTORANTE / PIZZERIA","DOM","LOCALITA' STEIN, 24",39025,"NATURNO","BZ",46.6635099922603,11.0433000098184
"CARITAS DIOCESI BOLZANO-BRESSANONE","UFFICIO","S&D","VIA CASSA DI RISPARMIO, 1",39100,"BOLZANO","BZ",46.5012300184468,11.3501299691154
"CARMEN RISTORANTE PIZZERIA","RISTORANTE / PIZZERIA","MAI","VIA DOGANA, 6",39011,"LANA","BZ",46.6063099990628,11.1626599874174
"CARPE DIEM RISTORANTE","RISTORANTE / PIZZERIA","MAI","VIA MAINARDO, 186",39012,"MERANO","BZ",46.6744099867877,11.1499999608612
"CASA KOLPING DI BOLZANO SELF SERVICE","SELF-SERVICE","DO","LARGO ADOLPH KOLPING, 3",39100,"BOLZANO","BZ",46.4975400113024,11.3504599646434
"CASCADE RISTORANTE BAR","RISTORANTE / PIZZERIA","MAI","ZONA INDUSTRIALE, 2",39032,"CAMPO TURES","BZ",46.9115999931989,11.9619600344272
"CASELLO 10 BAR","BAR TAVOLA FREDDA","DOM","VIA DEI VANGA, 35",39100,"BOLZANO","BZ",46.5009200137578,11.3526799955185
"CAVALLINO BIANCO RISTORANTE","RISTORANTE","S&D","LOC. TISO, 77",39040,"FUNES","BZ",46.6526413661384,11.6200619374845
"CAVALLINO BIANCO RISTORANTE PIZZERIA","RISTORANTE / PIZZERIA","MER","DORF, 15",39010,"SAN PANCRAZIO","BZ",46.5874712800952,11.0835621909386
"CAVALLINO TRATTORIA","TRATTORIA","LUN","VIA PAESE, 22",39050,"SAN GENESIO ATESINO","BZ",46.5355629206416,11.33093707875
"CENTRO PIZZA","GASTRONOMIA/ROSTICCERIA","MAI","V. ROMA, 39",39100,"BOLZANO","BZ",46.4925520044067,11.3413440489795
"CESA DA FOUR","RISTORANTE / PIZZERIA","XXX","P.ZA S. DURICH, 4",39046,"ORTISEI","BZ",46.5751599970158,11.6711400131095
"CFP CENTRO DI FORMAZIONE PROFESIONALE MENSA","MENSA","MAI","VIA TOBL, 6",39031,"BRUNICO","BZ",46.7936200121388,11.9340499732336
"CHALET OLYMPIA HOTEL PIZZERIA","RISTORANTE / PIZZERIA","LUN","VIA DEL BORGO, 5",39035,"MONGUELFO TESIDO","BZ",46.7678900001421,12.1140299700731
"CHAMPAGNE BAR","BAR TAVOLA FREDDA","DOM","V. AMBA ALAGI, 26/E",39100,"BOLZANO","BZ",46.4985499887255,11.3414800126764
"CHARLY RISTORANTE PIZZERIA","RISTORANTE / PIZZERIA","XXX","VIA ENRICO TOTI, 1",39012,"MERANO","BZ",46.6653600040196,11.1584299761608
"CHARRO'S","RISTORANTE","DO","VIA ROMA, 78",39100,"BOLZANO","BZ",46.4905399905939,11.3419100043093
"CHEZ FREDERICH RISTORANTE PIZZERIA","RISTORANTE / PIZZERIA","MAI","VIA ARMANDO DIAZ, 12",39100,"BOLZANO","BZ",46.5035399871429,11.3415400271032
"CHICCO BAR","BAR TAVOLA FREDDA","MAI","VIA DE LAI, 4",39100,"BOLZANO","BZ",46.4996199805753,11.3593000226465
"CHICKEN HUT TAKE AWAY","BAR TAVOLA FREDDA","MAI","VIA ANTONIO ROSMINI, 83",39100,"BOLZANO","BZ",46.4993699903131,11.347740037063
"CHINA HOUSE RISTORANTE","RISTORANTE","MAI","V. MARCONI, 13",39100,"BOLZANO","BZ",46.4950399829517,11.3512799662311
"CHIOSCO BAZZANA TAKE AWAY","FAST FOOD","XXX","V. DR. JULIUS PERATHONER, 20",39100,"BOLZANO","BZ",46.4971500013476,11.3562699646485
"CHRISTL RIST. PIZZ.","RISTORANTE / PIZZERIA","MAI","V. KERLA, 1/3",39030,"VALDAORA","BZ",46.7617099810213,12.0291300080852
"CHRISTL RISTORANTE PIZZERIA","RISTORANTE / PIZZERIA","MAI","VIA KERLA, 1",39030,"VALDAORA","BZ",46.7617099810213,12.0291300080852
"CHRISTOMANNOS RISTORANTE PIZZERIA","RISTORANTE / PIZZERIA","LUN","VIA NIGRA, 2",39056,"NOVA LEVANTE","BZ",46.4079499973021,11.6029200384407
"CIAK BAR","BAR TAVOLA FREDDA","XXX","PIAZZA DELLA VITTORIA, 29",39100,"BOLZANO","BZ",46.5002399899532,11.3432699680995
"CIBUS FOOD  RISTORANTE PIZZERIA","RISTORANTE / PIZZERIA","DOM","VIA MARIE CURIE, 13",39100,"BOLZANO","BZ",46.4705799969242,11.3254600164133
"CICKENPIZZA TAKE AWAY","TAKE AWAY / PIZZ. ASPORTO","LUN","VIA RESIA, 84",39100,"BOLZANO","BZ",46.4863699937642,11.318809982072
"CIN CAFFE'","BAR TAVOLA CALDA","LUN","C.SO LIBERTA', 1/A",39100,"BOLZANO","BZ",46.50107998238,11.3427699875751
"CIRCOLO TENNIS CLUB BOLZANO","BAR TAVOLA CALDA","LUN","VIA MARTIN KNOLLER, 8",39100,"BOLZANO","BZ",46.5047800058987,11.3335300289716
"CIRCOLO UNIFICATO ESERCITO","RISTORANTE / PIZZERIA","MAI","VIA MAINARDO, 132",39012,"MERANO","BZ",46.6729600013574,11.1558099608663
"CIRCOLO UNIFICATO RISTORANTE","RISTORANTE / PIZZERIA","LUN","VIA MAINARDO, 132",39012,"MERANO","BZ",46.6729600013574,11.1558099608663
"CIRCUS CAFE'","BAR TAVOLA FREDDA","MAI","VIA POSTGRANZ, 16",39012,"MERANO","BZ",46.665509998177,11.14391000529
"CITY BAR E COOK","SELF-SERVICE","XXX","PIAZZA GIUSEPPE VERDI, 48",39100,"BOLZANO","BZ",46.4952300006967,11.354450002012
"CITY BISTROT BAR","BAR TAVOLA CALDA","XXX","PIAZZA GIUSEPPE VERDI, 48",39100,"BOLZANO","BZ",46.4952300006967,11.354450002012
"CITY CHICKEN RISTORANTE","RISTORANTE","MAI","VIA FIRENZE, 9",39100,"BOLZANO","BZ",46.4939699911019,11.3433999714178
"CLARA HOTEL RISTORANTE","RISTORANTE / PIZZERIA","XXX","VIA BRENNERO, 64",39040,"VARNA","BZ",46.7347300177136,11.6461999954871
"CLASSIC LUMINA BAR RISTORANTE PIZZERIA","RISTORANTE / PIZZERIA","DO","VIA GALILEO GALILEI, 10",39100,"BOLZANO","BZ",46.4866100095616,11.3384699874271
"CLUB BOLZANO","RISTORANTE","LUN","V. MARTIN KNOLLER, 8",39100,"BOLZANO","BZ",46.5047800058987,11.3335300289716
"COFFE TIME BAR ENOTECA","BAR TAVOLA FREDDA","MAI","VIA ROMA, 64",39100,"BOLZANO","BZ",46.4913200105034,11.3415400271032
"COFFEEBREAK","BAR TAVOLA FREDDA","LUN","VIA RESIA, 132",39100,"BOLZANO","BZ",46.4834561924824,11.3185969941351
"COLLER TRATTORIA RISTORANTE","RISTORANTE / PIZZERIA","DOM","VIA PLATZ, 1",39044,"EGNA","BZ",46.3216099824391,11.2727800064128
"COME IN CAFE' BISTRO'","BAR TAVOLA CALDA","MAI","VIA DOTTOR JOSEF WEINGARTNER, 31",39022,"LAGUNDO","BZ",46.6795900029501,11.1336199618567
"CONAD CITY SUPERMERCATO","MARKET CON GASTR./SUPERMERCATO","MAI","VIA TIRO A SEGNO, 62",39012,"MERANO","BZ",46.6567650000001,11.1786332720001
"CONAD MARGHERITA  MARKET","MARKET CON GASTR./SUPERMERCATO","DOM","VIA GUGLIELMO MARCONI, 21",39100,"BOLZANO","BZ",46.4949399868468,11.3507499784933
"CONAD SUPERMERCATO","MARKET CON GASTR./SUPERMERCATO","MAI","VIA REZIA, 227",39046,"ORTISEI","BZ",46.5725399817212,11.6762099748832
"CONSORZIO BRESSANONE MENSA","MENSA","S&D","VIA JULIUS DURST, 76",39042,"BRESSANONE","BZ",46.6893099931485,11.6425400374655
"COOP ALTO ADIGE SUDTIROL","MARKET CON GASTR./SUPERMERCATO","DOM","VIA DEL MACELLO, 29",39100,"BOLZANO","BZ",46.4937699988921,11.3685500395338
"COOPER BREAD E BISTRO RISTORANTE","RISTORANTE","MAI","VIA DEI BOTTAI, 35",39100,"BOLZANO","BZ",46.4998700127471,11.3569400139884
"COSTABELLA","RISTORANTE / PIZZERIA","XXX","V. MEISULES, 277",39048,"SELVA GARDENA","BZ",46.5526400024782,11.7635799999179
"COSTABELLA RISTORANTE","RISTORANTE / PIZZERIA","MER","STRADA MEISULES, 277",39048,"SELVA DI VAL GARDENA","BZ",46.5526400024782,11.7635799999179
"CRISTALLO BAR","BAR TAVOLA FREDDA","MAI","VIA PALERMO, 103",39100,"BOLZANO","BZ",46.4880099969395,11.3313099980966
"CRISTINA BAR RISTORO","BAR TAVOLA CALDA","DOM","VIA RENON, 7",39100,"BOLZANO","BZ",46.4975200204633,11.3594799821076
"CROCE BIANCA","RISTORANTE","MAR","P.ZA DELLA CHIESA, 2",39050,"FIE' ALLO SCILIAR","BZ",46.5173099872271,11.5026800201753
"CROCE BIANCA ALBERGO","RISTORANTE","LUN","P.ZA CHIESA, 2",39050,"FIE' ALLO SCILIAR","BZ",46.5173099872271,11.5026800201753
"CROCE BIANCA ALBERGO RISTORANTE","RISTORANTE","LUN","VIA PRINCIPALE, 127",39028,"SILANDRO","BZ",46.6279200122822,10.7729599954434
"CROCE BIANCA RISTORANTE","RISTORANTE / PIZZERIA","MAI","VIA PRINCIPALE, 127",39028,"SILANDRO","BZ",46.6279200122822,10.7729599954434
"CROCE D'ORO HOTEL RISTORANTE","RISTORANTE / PIZZERIA","MAI","VIA SOCREP, 49",39046,"ORTISEI","BZ",46.5758999933377,11.6448400316969
"CROCE D'ORO RISTORANTE PIZZERIA","RISTORANTE / PIZZERIA","DOM","S. LEONARDO, 10",39040,"BARBIANO","BZ",46.5910299991216,11.5256699880239
"CUSANUS LOUNGE BAR","BAR TAVOLA CALDA","MAI","VIA HARTWIG, 9",39042,"BRESSANONE","BZ",46.714810005722,11.6587199604412
"CUTRAUNS TUBE RISTORANTE","RISTORANTE / PIZZERIA","DOM","VIA CUTRAUN, 26",39020,"PARCINES","BZ",46.6675299949327,11.0652799583344
"D. FACE","RISTORANTE / PIZZERIA","MAI","V. LANCIA, 8",39100,"BOLZANO","BZ",46.4849099919595,11.3368500170004
"DA AMEDEO BAR","BAR TAVOLA FREDDA","S&D","V. CESARE BATTISTI, 44",39100,"BOLZANO","BZ",46.5006900143347,11.3376899675176
"DA ANDREA  RISTORANTE PIZZERIA","RISTORANTE / PIZZERIA","MER","VIA KARL VON ETZEL, 14",39041,"BRENNERO","BZ",47.0022100009966,11.504490008347
"DA ATTILIO RISTORANTE","RISTORANTE / PIZZERIA","DO","STRADA CATARINA LANZ, 49",39030,"MAREBBE","BZ",46.7022070352031,11.9274654234353
"DA CANDIDO BAR TRATTORIA","TRATTORIA","MAI","VIA PLATZ, 1",39044,"EGNA","BZ",46.3216099824391,11.2727800064128
"DA CHEN XI PIZZERIA TAVOLA CALDA","BAR TAVOLA CALDA","LUP","VIA MILANO, 56",39100,"BOLZANO","BZ",46.4898199851112,11.3311400131002
"DA GIGI PIZZERIA D'ASPORTO","RISTORANTE / PIZZERIA","MAI","VIA MILANO, 134",39100,"BOLZANO","BZ",46.4901900042268,11.3280399662108
"DA GIGI RISTORANTE PIZZERIA","RISTORANTE / PIZZERIA","MAI","VIA VERONA, 27",39100,"BOLZANO","BZ",46.4937699988921,11.3414500054631
"DA GIORGIO RISTORANTE PIZZERIA","RISTORANTE / PIZZERIA","LUN","VIA NEURAUTH, 3",39031,"BRUNICO","BZ",46.7924700150231,11.9477200191224
"DA LIBERO CAFE' RISTORANTE PIZZERIA","RISTORANTE / PIZZERIA","LUN","VIA ALESSANDRIA, 19",39100,"BOLZANO","BZ",46.486259981285,11.3255399797696
"DA LOCI E MIGUEL","MARKET CON GASTR./SUPERMERCATO","MAI","VIA RESIA, 162",39100,"BOLZANO","BZ",46.4841000067462,11.3202899747157
"DA LUCIANO ROSTICCERIA GASTRONOMIA","GASTRONOMIA/ROSTICCERIA","MAI","VIA NAZIONALE, 1",39040,"SALORNO SULLA STRADA DEL VINO","BZ",46.2502021158353,11.2167035162021
"DA MARCO BAR","BAR TAVOLA CALDA","DOM","PIAZZA SAN MICHELE, 3",39038,"SAN CANDIDO","BZ",46.7326000084787,12.2815200091719
"DA PICCHIO RISTORO BAR TRATTORIA","TRATTORIA","XXX","VIA SAN QUIRINO, 11",39100,"BOLZANO","BZ",46.4994199883656,11.3451500289818
"DA ROLLY BAR","BAR TAVOLA FREDDA","DOM","VIA DEL MACELLO, 63",39100,"BOLZANO","BZ",46.4943299938433,11.3587500021601
"DA SERGIO RISTORANTE BAR PIZZERIA","RISTORANTE / PIZZERIA","LUN","VIA SAN QUIRINO, 19",39100,"BOLZANO","BZ",46.4975799929805,11.3446000084954
"DA TONINO PIZZERIA","RISTORANTE / PIZZERIA","DOM","VIA SANTA GELTRUDE, 20",39100,"BOLZANO","BZ",46.4873099822958,11.3473200198949
"DA TONY E SERGIO BAR RISTORANTE PIZZERIA","RISTORANTE / PIZZERIA","LUN","V. ALESSANDRIA, 19",39100,"BOLZANO","BZ",46.486259981285,11.3255399797696
"DAI ROMANI PIZZERIA","RISTORANTE / PIZZERIA","DOM","VIA MERCATO VECCHIO, 11",39042,"BRESSANONE","BZ",46.7187300122896,11.6572600005461
"DAL FEUR RISTORANTE PIZZERIA","RISTORANTE / PIZZERIA","LUN","STRADA PUEZ, 6",39048,"SELVA DI VAL GARDENA","BZ",46.5559500160422,11.7601099758223
"DAL GUERZO SUPERMERCATO","MARKET CON GASTR./SUPERMERCATO","DOM","VIA SOTTOMONTE, 43",39055,"LAIVES","BZ",46.4277400059755,11.3436199963762
"DANNY BAR","BAR TAVOLA CALDA","MAI","VIA RAFFAELLO SERNESI, 32",39100,"BOLZANO","BZ",46.4987200156314,11.3511699956615
"DANTE MENSA","MENSA RISERVATA","MAI","VIA DANTE ALIGHIERI, 41",39042,"BRESSANONE","BZ",46.7210600137343,11.6499099934706
"DEGUSTIBUS BAR","BAR TAVOLA CALDA","MAI","VIA ANTONIO ROSMINI, 51",39100,"BOLZANO","BZ",46.4982000023584,11.3479400292728
"DELICIOUS TAKE AWAY","TAKE AWAY / PIZZ. ASPORTO","MAI","VIA MUSEO, 58",39100,"BOLZANO","BZ",46.5002099827398,11.3483899698352
"DER TRAUBENWIRT RISTORANTE","RISTORANTE / PIZZERIA","DOM","VIA PORTICI MINORI, 9",39042,"BRESSANONE","BZ",46.7159999845158,11.6556700373328
"DERBY MAIR WOLFANG RISTORANTE","RISTORANTE / PIZZERIA","DOM","VIA PASSO PENNES, 1",39049,"VIPITENO","BZ",46.8798341890765,11.4374326519331
"DESPAR","MARKET CON GASTR./SUPERMERCATO","DOM","V. WEIBENBACHSTRASSE, 2",39030,"VALLE AURINA","BZ",46.9513199883286,11.9211600310733
"DESPAR","MARKET CON GASTR./SUPERMERCATO","DOM","V. PAESE, 09",39025,"PLAUS","BZ",46.6559200112968,11.0416900138565
"DESPAR MARKET","GASTRONOMIA/ROSTICCERIA","DOM","VIA PETER KEMENATER, 15",39040,"NAZ SCIAVES","BZ",46.770020009377,11.6657600047373
"DESPAR SALORNO SUPERMERCATO","MARKET CON GASTR./SUPERMERCATO","XXX","VIA NAZIONALE, 1",39040,"SALORNO SULLA STRADA DEL VINO","BZ",46.2502021158353,11.2167035162021
"DESPAR SUPERMERCATO","MARKET CON GASTR./SUPERMERCATO","DOM","VIA ULRICH VON TAUFERS, 6",39030,"GAIS","BZ",46.8358300192448,11.9467400070032
"DESPAR SUPERMERCATO","MARKET CON GASTR./SUPERMERCATO","DOM","VIA STAZIONE, 36",39052,"CALDARO SULLA STRADA DEL VINO","BZ",46.4158799901679,11.248139977105
"DESPAR TOGN SUPERMERCATO","MARKET CON GASTR./SUPERMERCATO","DO","VIA STAZIONE, 8",39057,"APPIANO SULLA STRADA DEL VINO","BZ",46.4551199956123,11.2597599771152
"DIANA RISTORANTE PIZZERIA","RISTORANTE / PIZZERIA","DOM","VIA ORAZIO, 57",39100,"BOLZANO","BZ",46.4974499896622,11.340599996662
"DIE DECHANTEI RISTORANTE","RISTORANTE","XXX","VIA HARTWIG, 5",39042,"BRESSANONE","BZ",46.7151700084634,11.6584600376237
"DIPS - FRENCH TACOS AND SALADS","FAST FOOD","XXX","VIA DOTTOR JULIUS PERATHONER, 29",39100,"BOLZANO","BZ",46.4969300182988,11.3558399730156
"DISTRIBUTORE Q8 BAR","BAR TAVOLA CALDA","MAI","VIA MEBO, 20",39100,"BOLZANO","BZ",46.4833411917344,11.2966581965479
"DOENERLAND SKAMPINI FAST FOOD","FAST FOOD","MAI","PIAZZA DOMENICANI, 41",39100,"BOLZANO","BZ",46.4976999799244,11.3524499960954
"DOLCE & SALATO","FAST FOOD","MAI","VIA DELLA RENA, 3",39100,"BOLZANO","BZ",46.4983800037291,11.3566100184604
"DOLOMITEN CAFE RESTAURANT","RISTORANTE","S&D","VIA VITTORIO VENETO, 33",39042,"BRESSANONE","BZ",46.7089899893426,11.6520499771703
"DOLOMITENBLICK PUB RESTAURANT","RISTORANTE / PIZZERIA","MAR","VIA AUSSERECK, 20",39037,"RIO DI PUSTERIA","BZ",46.8144699962877,11.6589600181482
"DOLOMITI RISTORANTE  PIZZERIA","RISTORANTE / PIZZERIA","DOM","V.LE VENEZIA, 3",39100,"BOLZANO","BZ",46.4991800144777,11.3454599917612
"DOLOMITIGRILL TAKE AWAY","TAKE AWAY / PIZZ. ASPORTO","MAI","VIA DEI CONCIAPELLI, 2",39100,"BOLZANO","BZ",46.4986200195265,11.3570199773447
"DOLORES BAR","BAR TAVOLA FREDDA","MAI","CORSO ITALIA, 13",39100,"BOLZANO","BZ",46.5001200030093,11.3400900416729
"DOM CAFE","BAR TAVOLA FREDDA","MAI","PIAZZA PARROCCHIA, 3",39042,"BRESSANONE","BZ",46.7166100194289,11.6574800255045
"DOM CAFE'","BAR TAVOLA CALDA","MAI","VIA ALTO ADIGE, 2",39100,"BOLZANO","BZ",46.497510004089,11.3548700191802
"DOMINO BAR","BAR TAVOLA CALDA","DOM","PIAZZA W VON DER VOGELWEIDE, 1",39100,"BOLZANO","BZ",46.4981100000001,11.35441
"DON CAMILLO RISTORANTE","RISTORANTE / PIZZERIA","MAI","VIA HERZOG HEINRICH, 3",39031,"BRUNICO","BZ",46.8150799892913,11.9356800019441
"DOPPIO ZERO RISTORANTE PIZZERIA","RISTORANTE / PIZZERIA","DO","VIA MASO DELLA PIEVE, 2",39100,"BOLZANO","BZ",46.4769499918804,11.3379900396513
"DOPPIOZERO BAR","BAR TAVOLA FREDDA","MAI","VIA MASO DELLA PIEVE, 2/6",39100,"BOLZANO","BZ",46.4769499918804,11.3379900396513
"DORF CAFE' BAR","BAR TAVOLA FREDDA","MAI","VIA PASSIRIA, 7",39015,"SAN LEONARDO IN PASSIRIA","BZ",46.8124300086929,11.2463699706115
"DORFLODN SUPERMERCATO","MARKET CON GASTR./SUPERMERCATO","DO","VIA WEISSKIRCHE, 42",39030,"VANDOIES","BZ",46.8129099983782,11.7566200027971
"DORIS BAR","BAR TAVOLA CALDA","SAB","VIA KARL WOLF, 71",39012,"MERANO","BZ",46.6790800060514,11.153079975002
"DRAGO D' ORO RISTORANTE","RISTORANTE","MAI","VIA DELLA ROGGIA, 7",39100,"BOLZANO","BZ",46.5003800096458,11.3515500311514
"DREAM'S PUB BAR","BAR TAVOLA CALDA","LUN","VIA DALMAZIA, 87",39100,"BOLZANO","BZ",46.4919199871327,11.3336600322899
"DUBLIN PUB BISTRO' RISTORANTE","BAR TAVOLA CALDA","DOM","VIA LUIGI NEGRELLI, 13",39100,"BOLZANO","BZ",46.4716600051484,11.3333000295485
"DUCA RISTORANTE SELF SERVICE","SELF-SERVICE","LUN","VIA BRUNO BUOZZI, 16",39100,"BOLZANO","BZ",46.4735399822115,11.3253499620247
"DUE DI PICCHE BAR BISTRO","BAR TAVOLA FREDDA","MAI","VIALE STAZIONE, 6",39042,"BRESSANONE","BZ",46.7157600106279,11.6546799669297
"EAST & WEST RISTORANTE","RISTORANTE","XXX","VIA DEL RONCO, 19",39100,"BOLZANO","BZ",46.4920311058215,11.3262003551412
"EBENEICH RISTORANTE PIZZERIA","RISTORANTE / PIZZERIA","XXX","V. VELLAU, 4",39022,"LAGUNDO","BZ",46.6932600069294,11.1216800246023
"EDELWEISS HOTEL RISTORANTE","RISTORANTE / PIZZERIA","LUN","VIA NAZIONALE, 28",39027,"CURON VENOSTA","BZ",46.8292099921169,10.5177000307095
"EDEN  PARK BAR","BAR TAVOLA FREDDA","DOM","VIA MUSEO, 4",39100,"BOLZANO","BZ",46.4996700205373,11.3522500038856
"EDEN BAR","BAR TAVOLA FREDDA","DO","VIA VITTORIO VENETO, 24",39042,"BRESSANONE","BZ",46.7102300080984,11.6517000327127
"EINKEHR ZUR LINDE TRATTORIA","TRATTORIA","MAI","VIA HEPPENHEIM, 6",39052,"CALDARO SULLA STRADA DEL VINO","BZ",46.4178999869236,11.2326600268635
"EISBAR","RISTORANTE / PIZZERIA","DOM","V. GUSTAV MAHLER, 24",39034,"DOBBIACO","BZ",46.7353700179306,12.2179099974306
"EISBERG GELATERIA CAFFE","BAR TAVOLA FREDDA","MAI","VIA FIRENZE, 13",39100,"BOLZANO","BZ",46.4936138773413,11.3433480137929
"ENGELKELLER RISTORANTE","RISTORANTE / PIZZERIA","LUN","LARGO BALLHAUS, 41",39044,"EGNA","BZ",46.3112699828629,11.2689499795758
"ENOTHEQUE BERNARDI BAR","BAR TAVOLA FREDDA","DOM","VIA STUCK, 6",39031,"BRUNICO","BZ",46.796139989419,11.9402100015153
"ERLENSTUBE RISTORANTE PIZZERIA","RISTORANTE / PIZZERIA","MAI","FRAZIONE SAN PIETRO MEZZOMONTE, 25",39040,"VELTURNO","BZ",46.6665799900268,11.6130400130586
"ETERNUM THE RESAURANT","RISTORANTE","DO","VIA PORTICI, 90",39012,"MERANO","BZ",46.6715499976052,11.1631299607284
"EURAC CAFE'","BAR TAVOLA FREDDA","DOM","VIALE DRUSO, 1",39100,"BOLZANO","BZ",46.4946000168541,11.346700010517
"EURAC CAFE' BAR","BAR TAVOLA FREDDA","DOM","VIALE DRUSO, 1",39100,"BOLZANO","BZ",46.4946000168541,11.346700010517
"EURO BAR","BAR TAVOLA FREDDA","MAI","VIA GUGLIELMO MARCONI, 44",39055,"LAIVES","BZ",46.4249500056845,11.3315000158416
"EUROBAR","BAR TAVOLA FREDDA","XXX","V. COVELANO, 44",39028,"SILANDRO","BZ",46.6260000116313,10.7709899967401
"EUROPA RISTORANTE PIZZERIA","RISTORANTE / PIZZERIA","LUN","VIA ROMA, 31",39041,"BRENNERO","BZ",46.9353299992789,11.4463999827609
"EUROSPAR","MARKET CON GASTR./SUPERMERCATO","XXX","STRADA FANES, 1",39030,"MAREBBE","BZ",46.6972800096019,11.9323099739534
"EVOLUTION SNACK BAR","BAR TAVOLA FREDDA","MAI","V. DALMAZIA, 37/B",39100,"BOLZANO","BZ",46.4915399935523,11.338379965787
"EVOQUE BAR","BAR TAVOLA CALDA","DOM","VIA ORAZIO, 42",39100,"BOLZANO","BZ",46.4976799890854,11.3411800243618
"EWALD BAR RISTORANTE","RISTORANTE","MAI","V. WOLKENSTEIN, 31",39040,"CASTELROTTO","BZ",46.5652499890724,11.5592400131557
"EXPRESS CAFFE' BAR","BAR TAVOLA CALDA","DO","VIA DELLA MENDOLA, 106",39100,"BOLZANO","BZ",46.4960100206062,11.3252300169902
"FAM CHEN RISTORANTE PIZZERIA","RISTORANTE / PIZZERIA","MAI","VIA STAZIONE, 10",39052,"CALDARO SULLA STRADA DEL VINO","BZ",46.4169200167139,11.2494499847523
"FANTASY LOUNGE & WINE BAR","BAR TAVOLA CALDA","MAI","CORSO DELLA LIBERTA', 28",39100,"BOLZANO","BZ",46.5014600178699,11.3416299649242
"FANTASY TAKE AWAY","TAKE AWAY / PIZZ. ASPORTO","MAI","VIA ANDREAS HOFER, 6",39028,"SILANDRO","BZ",46.6263399816241,10.7727600032337
"FASHION'S CAFE'","BAR TAVOLA FREDDA","DOM","V. CESARE BATTISTI, 20/22",39100,"BOLZANO","BZ",46.5001300193836,11.3442700129674
"FELDTHURNER RISTORANTE","RISTORANTE","LUN","LOCALITA' GOLA, 152",39040,"VELTURNO","BZ",46.6651428085146,11.5896280248521
"FERDY RISTORANTE","RISTORANTE / PIZZERIA","MAI","VIA STATALE, 43",39020,"CASTELBELLO-CIARDES","BZ",46.6316800083181,10.9172999723429
"FIGL RISTORANTE","RISTORANTE","MER","VIA DEL MULINO, 9",39010,"NALLES","BZ",46.5450400051405,11.2020100053409
"FINK RISTORANTE","RISTORANTE","MAI","VIA DELLA MOSTRA, 9",39100,"BOLZANO","BZ",46.4985400142607,11.3528300315853
"FISCHADLER RISTORANTE","RISTORANTE / PIZZERIA","MAR","VIA TUNES, 56",39049,"VIPITENO","BZ",46.8916944951966,11.4180420521077
"FLORA CAFE' BAR","BAR TAVOLA CALDA","MER","VIA BOLZANO, 2",39011,"LANA","BZ",46.6131500092396,11.1570199724087
"FLY PIZZA E GASTRONOMIA","GASTRONOMIA/ROSTICCERIA","MAI","VIA JOHANN BASTISS PURGER, 181",39046,"ORTISEI","BZ",46.5914750000001,11.6853984530001
"FONDAZIONE PADRI CAPPUCCINI OPERA SERAFICA MENSA","MENSA","MAI","VIA JOHANN WOLFGANG VON GOETHE, 15",39012,"MERANO","BZ",46.6752299883753,11.1546700220344
"FONSATTI BAR","BAR TAVOLA CALDA","DOM","VIA NAZIONALE, 73",39040,"ORA","BZ",46.3745800062896,11.3160499889944
"FOOD PLAZA SUPERMERCATO","MARKET CON GASTR./SUPERMERCATO","XXX","VIA DANTE ALIGHIERI, 14",39042,"BRESSANONE","BZ",46.7209199940418,11.6510299833729
"FORKS BAR","BAR TAVOLA CALDA","XXX","VIA JOSEF RESSEL, 2",39100,"BOLZANO","BZ",46.4825599996757,11.3280999806375
"FORNERIA 38 RISTORANTE PIZZERIA","RISTORANTE / PIZZERIA","DO","PIAZZA DELLE ERBE, 39",39100,"BOLZANO","BZ",46.5000299813692,11.3527199771966
"FORST SEASON BAR","BAR TAVOLA CALDA","MAI","PIAZZA FIERA, 1",39100,"BOLZANO","BZ",46.4725699864666,11.3256600086231
"FORST SEASON RISTORANTE","RISTORANTE","S&D","PIAZZA FIERA, 1",39100,"BOLZANO","BZ",46.4725699864666,11.3256600086231
"FORSTERBRAU CENTRAL RISTORANTE","RISTORANTE","DO","VIA JOHANN WOLFANG VON GOETHE, 6",39100,"BOLZANO","BZ",46.4991000092118,11.3522899855637
"FORTUNA CHEN RISTORANTE","RISTORANTE","MAI","VIA MILLAN, 3",39042,"BRESSANONE","BZ",46.7072999881149,11.6614900118026
"FORUM CAFFE' BAR","BAR TAVOLA CALDA","MAI","CORSO ITALIA, 25",39100,"BOLZANO","BZ",46.4981399879317,11.3402499683855
"FOSTERBRAU RISTORANTE","RISTORANTE","MAI","CORSO DELLA LIBERTA', 90",39012,"MERANO","BZ",46.6706900143394,11.1629199940539
"FRANZBAR","BAR TAVOLA CALDA","MAI","VIA LEONARDO DA VINCI, 1",39100,"BOLZANO","BZ",46.4988900006278,11.3522500038856
"FRANZISKANERSTUBEN RISTORANTE","RISTORANTE","DOM","VIA DEI FRANCESCANI, 7",39100,"BOLZANO","BZ",46.5003800096458,11.3535600115329
"FRIENDS","TAKE AWAY / PIZZ. ASPORTO","XXX","V. CONCIAPELLI, 2",39100,"BOLZANO","BZ",46.4986200195265,11.3570199773447
"FRIENDS KEBAP TAKE AWAY","TAKE AWAY / PIZZ. ASPORTO","MAI","VIA DEI CONCIAPELLI, 2",39100,"BOLZANO","BZ",46.4986200195265,11.3570199773447
"FRILO MERCATO","MARKET CON GASTR./SUPERMERCATO","XXX","VIA PAESE, 11",39054,"RENON","BZ",46.5368099820506,11.4641999599823
"FRILO MERCATO","MARKET CON GASTR./SUPERMERCATO","XXX","VIA ROMA, 34",39056,"NOVA LEVANTE","BZ",46.4303199976824,11.5384399851498
"FRISCHECENTER RUNGG SILANDRO MARKET","MARKET CON GASTR./SUPERMERCATO","XXX","VIA PRINCIPALE, 5",39028,"SILANDRO","BZ",46.6263499979984,10.7781599605354
"FUNDUS CAFE' BISTRO' BAR","BAR TAVOLA CALDA","DOM","VIA BOLZANO, 78",39011,"LANA","BZ",46.6095696801207,11.1679749902511
"GABI'S PIZZA RISTORANTE PIZZERIA","RISTORANTE / PIZZERIA","MAR","VIA PUSTERIA, 6",39035,"MONGUELFO TESIDO","BZ",46.7577900163633,12.1037899666018
"GALILEO BAR","BAR TAVOLA CALDA","S&D","VIA LUIGI CADORNA, 14",39100,"BOLZANO","BZ",46.5047499986853,11.3463400077756
"GALVANI BAR","BAR TAVOLA FREDDA","DO","VIA LUIGI GALVANI, 6",39100,"BOLZANO","BZ",46.4759900125098,11.3325299841038
"GAMBRINUS RISTORANTE","RISTORANTE / PIZZERIA","LUN","VIA ANTONIO LOCATELLI, 8",39100,"BOLZANO","BZ",46.5012300184468,11.3443600346075
"GARNI RAETIA BAR","BAR TAVOLA CALDA","DOM","VIA COL ALT, 87",39033,"CORVARA IN BADIA","BZ",46.5483599931692,11.8753899782316
"GARTEN BZCAFE'","BAR TAVOLA FREDDA","DOM","V. SANTA CROCE, 19",39042,"BRESSANONE","BZ",46.7156399817744,11.653250014248
"GASSENWIRT HOTEL RISTORANTE","RISTORANTE / PIZZERIA","MAI","VIA CHIENES, 42",39030,"CHIENES","BZ",46.8091000042898,11.8417699969568
"GASSER PANIFICIO GASTRONOMIA","GASTRONOMIA/ROSTICCERIA","","VIA PAESE, 20",39100,"LUSON","BZ",46.5355700052043,11.3309499953552
"GASSER PANIFICIO PASTICCERIA GASTRONOMIA","GASTRONOMIA/ROSTICCERIA","DOM","VIA BASTIONI MAGGIORI, 4",39042,"BRESSANONE","BZ",46.7174700026947,11.6570600083363
"GASSER PANIFICIO PASTICCERIA GASTRONOMIA","GASTRONOMIA/ROSTICCERIA","DOM","FRAZIONE SAN PIETRO, 13",39040,"FUNES","BZ",46.640670018569,11.6770400347547
"GASSER PASTICCERIA","GASTRONOMIA/ROSTICCERIA","DOM","VIA SANT'ERARDO, 1",39042,"BRESSANONE","BZ",46.7157300034146,11.6555200012659
"GASSER SNACK CAFE' BAR","BAR TAVOLA CALDA","XXX","VIA BRUNICO, 25",39030,"SAN LORENZO DI SEBATO","BZ",46.7880469685365,11.9160925000515
"GASSER SUPERMERCATO","MARKET CON GASTR./SUPERMERCATO","MAI","VIA BOLZANO, 8",39018,"TERLANO","BZ",46.520600009952,11.2580100033702
"GASSIER SNACKCAFE' BAR","BAR TAVOLA FREDDA","DO","VIA BRENNERO, 21",39042,"BRESSANONE","BZ",46.7224799919512,11.6555800156927
"GASSLBRAU RISTORANTE","RISTORANTE / PIZZERIA","MAR","VIA CONCIATORI, 18",39043,"CHIUSA","BZ",46.639840000607,11.5645099671392
"GASTHAUS FICHTE RISTORANTE","RISTORANTE","","VIA DELLA PIOGGIA 2",39058,"SARENTINO","BZ",46.6954500000001,11.3876151590001
"GASTHAUS PIZZERIA ENGELE","RISTORANTE / PIZZERIA","LUN","VIA ROMA, 113",39012,"MERANO","BZ",46.6599699792731,11.1655700165618
"GASTHAUS SCHWARZER ADLER RISTORANTE","RISTORANTE","MAI","VIA PRINCIPALE, 38",39028,"SILANDRO","BZ",46.6285300052858,10.7769099673149
"GASTHAUSBRAUEREI BRUCKENWIRT RISTORANTE PIZZERIA","RISTORANTE / PIZZERIA","MAR","VIA PIANLARGO, 2",39010,"SAN MARTINO IN PASSIRIA","BZ",46.8159859766796,11.201175265725
"GASTHOF BURGFRIEDEN RISTORANTE","RISTORANTE / PIZZERIA","MAR","SPRECHENSTEIN, 9",39040,"CAMPO DI TRENS","BZ",46.8893300918665,11.4547398393252
"GASTHOF DAIMER KG RISTORANTE","RISTORANTE","SAB","VIA DOTTOR DAIMER, 40",39032,"CAMPO TURES","BZ",46.9184299870014,11.958520017545
"GASTHOF KLAMMER RISTORANTE","RISTORANTE / PIZZERIA","XXX","VIA BRENNERO, 42",39049,"VIPITENO","BZ",46.893019996068,11.4355999843383
"GASTHOF LAMM","RISTORANTE","GIO","LOCALITA' LAUDES, 72",39024,"MALLES VENOSTA","BZ",46.6790000007856,10.5307799906147
"GASTHOF LANZENSCHUSTER","RISTORANTE","XXX","FRAZ. VALAS, 48",39050,"SAN GENESIO ATESINO","BZ",46.5844722243094,11.2957170411246
"GASTHOF PARDELLER RISTORANTE","RISTORANTE / PIZZERIA","LUN","VIA ROMA, 18",39056,"NOVA LEVANTE","BZ",46.4307400148505,11.5416400281441
"GASTHOF PENSION ROSEMARIE RISTORANTE","RISTORANTE","DO","VIA PALADE, 57",39020,"MARLENGO","BZ",46.6495200091272,11.1470999900005
"GASTHOF POST","TRATTORIA","XXX","V. CITTA' NUOVA, 14",39049,"VIPITENO","BZ",46.8982300194438,11.4314399619733
"GASTHOF POST RISTORANTE","RISTORANTE","XXX","VIA INNOZENZ BARAT, 5",39040,"CAMPO DI TRENS","BZ",46.8759699896332,11.4858299640407
"GASTHOF SONNE","RISTORANTE","MAR","ASTFELD, 34",39058,"SARENTINO","BZ",46.6662499944988,11.3648699649446
"GASTHOF SONNE RISTORANTE","RISTORANTE / PIZZERIA","XXX","VIA JOSEF RENZLER, 24",39030,"SAN LORENZO DI SEBATO","BZ",46.783350001454,11.9009400307671
"GASTHOF TERZER RISTORANTE PIZZERIA","RISTORANTE / PIZZERIA","LUN","VIA OBERGASSE, 5",39040,"CORTACCIA SULLA STRADA DEL VIN","BZ",46.3145199820001,11.2227399606363
"GASTHOF TRAUBE RISTORANTE","RISTORANTE","XXX","VIA JOSEF RENZLER, 13",39030,"ST. LORENZEN","BZ",46.7830399967651,11.9019900317779
"GASTHOF ZUR MUEHLE RISTORANTE PIZZERIA","RISTORANTE / PIZZERIA","MER","VIA HILBWEG, 4",39040,"ORA","BZ",46.3485500059782,11.2973600212938
"GASTHOF ZUR ROSE RISTORANTE","RISTORANTE","MAR","PIAZZA CHIESA, 17",39040,"MONTAGNA","BZ",46.3308299921131,11.3041800406315
"GASTHOF ZUR SONNE RISTORANTE","RISTORANTE","XXX","LOCALITA' MALGASOTT, 33",39010,"SENALE-SAN FELICE","BZ",46.510720009222,11.1096300329592
"GASTHOR EBNER RISTORANTE","RISTORANTE","XXX","VIA CENTRO, 26",39040,"ALDINO","BZ",46.3971899805578,11.3896600303192
"GASTON RISTORANTE PIZZERIA","RISTORANTE / PIZZERIA","DOM","VIA PORTICI, 242",39012,"MERANO","BZ",46.6719900056124,11.1609000392076
"GASTRONOMIA LA SIESTA","GASTRONOMIA/ROSTICCERIA","DOM","VIA ROMA, 39",39100,"BOLZANO","BZ",46.4925520044067,11.3413440489795
"GASTRONOMIA PECCATI DI GOLA","GASTRONOMIA/ROSTICCERIA","DOM","P.ZA MATTEOTTI, 6",39100,"BOLZANO","BZ",46.4898799995379,11.3364800397942
"GASTROSERVICE MENSA","MENSA","DOM","VIA MARIE CURIE, 2",39100,"BOLZANO","BZ",46.4701300144522,11.3252199587064
"GATTERER PANIFICIO","GASTRONOMIA/ROSTICCERIA","MAI","VIA SAN LORENZO, 18",39031,"BRUNICO","BZ",46.7923400117049,11.9287800192501
"GATTERER PANIFICIO","GASTRONOMIA/ROSTICCERIA","MAI","KIENER DORF WEG, 2",39030,"CHIENES","BZ",46.8061499934672,11.8361800219101
"GATTO NERO RISTORANTE BIRRERIA","RISTORANTE / PIZZERIA","DO","VIA DELLE CORSE, 12",39012,"MERANO","BZ",46.6712800165039,11.1595799732765
"GATTO NERO SCHWARZE KATZ HOTEL RISTORANTE","RISTORANTE","DO","VIA SANTA MADDALENA DI SOTTO, 2",39100,"BOLZANO","BZ",46.5011700040201,11.3654899743225
"GAUDI RISTORANTE","RISTORANTE","MAI","VIA PRINCIPALE, 4",39018,"TERLANO","BZ",46.5294999985627,11.2490500003328
"GEDI  BAR RISTORANTE","RISTORANTE / PIZZERIA","DOM","VIA DEI CAMPI DELLA RIENZA STEG, 30",39031,"BRUNICO","BZ",46.8019199822107,11.9273799899627
"GEIER PIZZERIA","RISTORANTE / PIZZERIA","DOM","PIAZZA GRIES, 7",39100,"BOLZANO","BZ",46.5028199816601,11.3342399761706
"GELATERIA DOLOMITI BAR","BAR TAVOLA FREDDA","LUN","C.SO ITALIA, 13",39100,"BOLZANO","BZ",46.5001200030093,11.3400900416729
"GEPA BAR","BAR TAVOLA CALDA","S&D","VIA AMONN, 29",39042,"BRESSANONE","BZ",46.7038250000001,11.663835708
"GEPA RISTORANTE","SELF-SERVICE","S&D","ZONA INDUSTRIALE, 160",39028,"SILANDRO","BZ",46.6159468877818,10.8383147613681
"GERDA RISTORANTE","RISTORANTE","DOM","FRAZIONE BURGUSIO, 65",39024,"MALLES VENOSTA","BZ",46.7124800042773,10.5304899767649
"GERHARD RISTORANTE","RISTORANTE","XXX","VIA PALADE, 1",39010,"CERMES","BZ",46.6271300179079,11.1472399677835
"GIARDINO RISTORANTE PIZZERIA","RISTORANTE / PIZZERIA","MAI","PASSEGGIATA LUNGO PASSIRIO, 2",39012,"MERANO","BZ",46.6700700049615,11.163809984533
"GIGAJOY RISTORANTE PIZZERIA","RISTORANTE / PIZZERIA","MAI","VIA LUIGI GALVANI, 3",39100,"BOLZANO","BZ",46.4770299971462,11.3335499779012
"GIGLIO BIANCO RISTORANTE","RISTORANTE / PIZZERIA","LUN","PIAZZA CHIESA, 2",39037,"RIO DI PUSTERIA","BZ",46.7960700005275,11.6663500069018
"GILFENKLAMM BAR RISTORANTE","RISTORANTE","SAB","LOCALITA' STANGHE, 20",39040,"RACINES","BZ",46.882480004282,11.3777599909239
"GIOIA BAR","BAR TAVOLA FREDDA","MAI","VIA ROEN, 11",39100,"BOLZANO","BZ",46.4978500159913,11.3373100158466
"GLOBAL 17 BAR BISTRO","BAR TAVOLA CALDA","S&D","VIA MAESTRI DEL LAVORO, 20",39100,"BOLZANO","BZ",46.4703399811268,11.3259399641892
"GOLDENE TRABUE RISTORANTE","RISTORANTE","MAI","VIA JULIUS VON PAYER, 2",39040,"TERMENO SULLA STRADA DEL VINO","BZ",46.3408700033747,11.2392200395647
"GOLDENER LOWE RIST.","RISTORANTE","VEN","VIA DANTE, 6",39028,"SILANDRO","BZ",46.6286699830688,10.7741900397344
"GOLDENER STERN RISTORANTE PIZZERIA","RISTORANTE / PIZZERIA","LUN","VIA ANDREAS HOFER, 28",39052,"CALDARO SULLA STRADA DEL VINO","BZ",46.4140099875694,11.2459900189405
"GOLDENHOF HOTEL RISTORANTE PIZZERIA","RISTORANTE / PIZZERIA","MAI","VIA SAN PIETRO, 2",39040,"ORA","BZ",46.349270011461,11.2977800384619
"GOLDRAINERHOF HOTEL RISTORANTE","RISTORANTE / PIZZERIA","MAI","VIA VAL VENOSTA, 4",39021,"LACES","BZ",46.6192053902606,10.8245942648857
"GOLFCLUBHOUSE","RISTORANTE","XXX","VIA IM GELANDE, 15",39031,"BRUNICO","BZ",46.7784999808196,11.9345799609714
"GOOD DAY CAFE' BAR","BAR TAVOLA FREDDA","DOM","CORSO DELLA LIBERTA', 14",39100,"BOLZANO","BZ",46.5035699943563,11.333890031713
"GRANDE MURAGLIA RISTORANTE","RISTORANTE / PIZZERIA","MAI","VIA RENON, 29",39100,"BOLZANO","BZ",46.4984699834597,11.3611599669611
"GRAZIADEI PANIFICIO GASTRONOMIA","GASTRONOMIA/ROSTICCERIA","DOM","VIA BASTIONI, 32",39031,"BRUNICO","BZ",46.7963399816287,11.9384700022351
"GREEN BISTRO BAR","BAR TAVOLA CALDA","DOM","VIA GIUSEPPE DI VITTORIO, 16",39100,"BOLZANO","BZ",46.4759999869745,11.3238599949162
"GRELEX BAR","BAR TAVOLA FREDDA","DOM","V.LE EUROPA, 140",39100,"BOLZANO","BZ",46.4928899828777,11.3254699908781
"GRILL IMBISS 2000 FAST FOOD","FAST FOOD","DOM","ZONA INDUSTRIALE, 0",39011,"LANA","BZ",46.6282227925505,11.1625403402662
"GRILL UNTERLAND","RISTORANTE","LUN","VIA NAZIONALE, 22",39040,"SALORNO SULLA STRADA DEL VINO","BZ",46.2394188456285,11.2065058692397
"GRILLAGE RISTORANTE","RISTORANTE","DOM","VIA PORTICI MAGGIORI, 28",39042,"BRESSANONE","BZ",46.716630010268,11.6555700412279
"GRILLSTUBE PIRCHER","RISTORANTE","MAI","STRADA DEL VINO, 45",39010,"NALLES","BZ",46.5497220041151,11.2135341608737
"GRISSINO RISTORANTE","RISTORANTE","XXX","VIA DEL MACELLO, 53",39100,"BOLZANO","BZ",46.4931600058885,11.361210006923
"GRISSINO RISTORANTE ITALIANO","RISTORANTE / PIZZERIA","MAI","VIA MERCATO VECCHIO, 28",39042,"BRESSANONE","BZ",46.7186300161847,11.6569399794829
"GROOVE CAFE' UFO BAR","BAR TAVOLA CALDA","S&D","VIA JOSEF FERRARI, 20",39031,"BRUNICO","BZ",46.7911499910015,11.9329699650095
"GRUBER & STEINER RISTORANTE PIZZERIA","RISTORANTE / PIZZERIA","LUN","V. BRENNERO, 12",39049,"VIPITENO","BZ",46.9041400155537,11.4295999665883
"GRUENER BAUM RISTORANTE","RISTORANTE / PIZZERIA","MAI","VIA STUFLES, 11",39042,"BRESSANONE","BZ",46.7170999835791,11.6593500281029
"GUATER TROPFEN RISTORANTE","RISTORANTE / PIZZERIA","LUN","LOCALITA' PONTENOVA DI SOTTO, 25",39050,"NOVA PONENTE","BZ",46.4259218407418,11.4794973909734
"GUFLER CAFE' BAR","BAR TAVOLA FREDDA","MAI","VIA GUGLIELMO MARCONI, 4",39028,"SILANDRO","BZ",46.6288999824919,10.7712700361252
"GUNCINA BAR","BAR TAVOLA FREDDA","XXX","VIA FAGO, 7",39100,"BOLZANO","BZ",46.507600013403,11.3443000201808
"GUNTHER'S IMBISSHOUSE BAR","BAR TAVOLA CALDA","DOM","VIA RATISBONA, 0",39042,"BRESSANONE","BZ",46.7145243763197,11.6542315529419
"GUSTO PIZZA RISTORANTE PIZZERIA","RISTORANTE / PIZZERIA","LUN","VIA DALMAZIA, 6",39100,"BOLZANO","BZ",46.4920799976643,11.3404799678086
"GUTLEBEN RISTORANTE PIZZERIA","BAR TAVOLA CALDA","MER","VIA GUGLIELMO MARCONI, 70",39055,"LAIVES","BZ",46.4224400028691,11.3299300015578
"H BAR","BAR TAVOLA CALDA","DOM","VIA JOHN FITZGERALD KENNEDY, 132",39055,"LAIVES","BZ",46.4270500077061,11.3370999653531
"HAIDI BAR","BAR TAVOLA CALDA","XXX","VIA RENON, 33",39100,"BOLZANO","BZ",46.4992099797815,11.3626500178886
"HAPPY BAR","BAR TAVOLA CALDA","MAI","VIA RESIA, 156",39100,"BOLZANO","BZ",46.4842500009035,11.3201599713974
"HAPPY POMODORO PIZZERIA","RISTORANTE / PIZZERIA","MAI","VIA LAURIN, 8",39012,"MERANO","BZ",46.6756300147044,11.1488099820673
"HARDIMITZ'N RISTORANTE PIZZERIA","RISTORANTE / PIZZERIA","XXX","VIA FUNIVIA, 7",39031,"BRUNICO","BZ",46.7713500078634,11.9430000018063
"HARPF RISTORANTE PIZZERIA","RISTORANTE / PIZZERIA","MAI","LOCALITA' LA MARA, 107",39042,"BRESSANONE","BZ",46.6862099881685,11.6270500289402
"HARRASSER PANIFICIO GASTRONOMIA","GASTRONOMIA/ROSTICCERIA","DOM","VIA VALLE AURINA, 14",39031,"BRUNICO","BZ",46.8106200205212,11.9355899803041
"HARRASSER PANIFICIO GASTRONOMIA","GASTRONOMIA/ROSTICCERIA","DOM","STRADA DEL SOLE DELLA PUSTERIA, 18",39030,"TERENTO","BZ",46.830270009502,11.7791900372967
"HARRASSER PANIFICIO GASTRONOMIA","GASTRONOMIA/ROSTICCERIA","DOM","VIA ULRICH VON TAUFERS, 4",39030,"GAIS","BZ",46.8360699931328,11.9467400070032
"HARRASSER PANIFICIO GASTRONOMIA","GASTRONOMIA/ROSTICCERIA","DOM","RIONE PETER ANICH, 3",39031,"BRUNICO","BZ",46.8020400110642,11.9371900018012
"HARRASSER PANIFICIO GASTRONOMIA","GASTRONOMIA/ROSTICCERIA","DOM","VIA BASTIONI, 2",39031,"BRUNICO","BZ",46.7952800061532,11.9357199836223
"HAUBI'S GASTRONOMIA","GASTRONOMIA/ROSTICCERIA","MAI","VIA CAPPUCCINI, 13",39057,"APPIANO SULLA STRADA DEL VINO","BZ",46.4553100133572,11.2581499811533
"HAZIENDA RISTORO","BAR TAVOLA CALDA","MAI","VIA INNSBRUCK, 5",39100,"BOLZANO","BZ",46.4921596998407,11.3697802281067
"HDS UNIONE BAR","BAR TAVOLA CALDA","S&D","VIA DI MEZZO AI PIANI, 5",39100,"BOLZANO","BZ",46.4951199882175,11.3713100326114
"HEINI'S BISTRO BAR","BAR TAVOLA CALDA","S&D","LOCALITA' PRATO DELL'OSPIZIO, 12",39043,"CHIUSA","BZ",46.6454599828671,11.5811199655668
"HELENE RISTORANTE PIZZERIA BAR","RISTORANTE / PIZZERIA","LUN","V. CITTA' VECCHIA, 42",39049,"VIPITENO","BZ",46.9008600092031,11.4300100092916
"HELLIS IMBISS","FAST FOOD","DOM","VIA BRENNERO, 35",39049,"VIPITENO","BZ",46.8943039525464,11.4357145014555
"HELMAS CAFFE BAR","BAR TAVOLA CALDA","MAI","VIA BRENNERO, 1",39100,"BOLZANO","BZ",46.5004000004849,11.3610800036048
"HELMHOTEL RISTORANTE PIZZERIA","RISTORANTE / PIZZERIA","MAI","VIA BOLZANO, 2",39038,"SAN CANDIDO","BZ",46.7308401581183,12.3232699008053
"HERMANS BAR & RESTAURANT","RISTORANTE","MAI","VIA RAGEN DI SOPRA, 13",39031,"BRUNICO","BZ",46.7949599850899,11.9412999842042
"HERRNHOF CASTEL CAFE RESTAURANT","RISTORANTE / PIZZERIA","MAI","VIA STAZIONE, 18",39052,"CALDARO SULLA STRADA DEL VINO","BZ",46.4159599954337,11.2478200398608
"HEUSCHUPFEN RISTORANTE KELLERBAR","RISTORANTE","MAI","VIA JOSEF INNERHOFER, 26",39057,"APPIANO SULLA STRADA DEL VINO","BZ",46.4545600006611,11.2591500260211
"HF HOTEL FIERA RISTORANTE PIZZERIA","RISTORANTE / PIZZERIA","DOM","VIA JOHANN KRAVOGL, 3",39100,"BOLZANO","BZ",46.4699500130815,11.3309199881418
"HILARY BAR","BAR TAVOLA FREDDA","MAI","VIA LUIGI GALVANI, 3",39100,"BOLZANO","BZ",46.4770299971462,11.3335499779012
"HIRSCHEN RISTORANTE","RISTORANTE / PIZZERIA","MAR","PIAZZA TINNE, 7",39043,"CHIUSA","BZ",46.6391699931767,11.5650699620904
"HOCHRAIN ALBERGO RISTORANTE PIZZERIA","RISTORANTE / PIZZERIA","MAR","VIA MICHAEL PACHER, 68",39040,"NAZ-SCIAVES","BZ",46.7450100028631,11.6603199819384
"HOCHRAINER BAR RISTORANTE","RISTORANTE / PIZZERIA","MAI","VIA JOSEF ANTON ZOLLER, 12",39030,"VANDOIES","BZ",46.8168300049458,11.7218500244067
"HOCHRAINER RISTORANTE PIZZERIA","RISTORANTE / PIZZERIA","LUN","V. J.A.ZOLLER, 12",39030,"VANDOIES","BZ",46.8159734310051,11.7219836814512
"HOCHWART RISTORANTE","RISTORANTE / PIZZERIA","SAB","VIA STAZIONE, 1",39025,"PLAUS","BZ",46.6581901296929,11.040486118714
"HOFER TRATTORIA RISTORANTE","RISTORANTE / PIZZERIA","SAB","VIA BERGAMO, 19",39100,"BOLZANO","BZ",46.4906800102865,11.3335799851145
"HOLBZEIT RESTAURANT","SELF-SERVICE","XXX","VIA PIZACH, 31",39038,"SAN CANDIDO","BZ",46.7296600140304,12.2676000149304
"HOLLYWOOD CAFFE'","BAR TAVOLA FREDDA","MAI","V.LE TRIESTE, 62",39100,"BOLZANO","BZ",46.4908800024963,11.34325001917
"HOME CENTER SNACK BAR","BAR TAVOLA CALDA","DO","VIA GALILEO GALILEI, 4",39100,"BOLZANO","BZ",46.4872200025652,11.3409699738682
"HONG KONG RISTORANTE","RISTORANTE","MAI","VIA CLAUDIA AUGUSTA, 25",39100,"BOLZANO","BZ",46.4849099919595,11.3445399940687
"HOPFEN & CO RISTORANTE","RISTORANTE","MAI","PIAZZA DELLE ERBE, 17",39100,"BOLZANO","BZ",46.499330008635,11.3525499922002
"HOTEL ANEWANDTER GMBH RISTORANTE","RISTORANTE","MAI","VIA ANDRAE VON WENZL, 15",39030,"GAIS","BZ",46.8642699843572,11.9464100114752
"HOTEL BERGKRISTALL RISTORANTE PIZZERIA","RISTORANTE / PIZZERIA","MAI","LOCALITA' FLERES, 88",39041,"BRENNERO","BZ",46.9405970835007,11.4369433396623
"HOTEL BOTANGO","RISTORANTE / PIZZERIA","MAI","VIA VENOSTA, 105",39020,"PARCINES","BZ",46.6792699818868,11.0886200382787
"HOTEL CHRISTOPH RISTORANTE","RISTORANTE","GIO","VIA SCENA, 2",39017,"SCENA","BZ",46.689450012841,11.1879300005678
"HOTEL CORSO BRUNICO","RISTORANTE / PIZZERIA","MAR","VIA BASTIONI, 16",39031,"BRUNICO","BZ",46.7960300188493,11.9374400339729
"HOTEL DANIELA RISTORANTE PIZZERIA","RISTORANTE / PIZZERIA","XXX","VIA PARROCCHIA, 31",39012,"MERANO","BZ",46.6600499845389,11.1639799695294
"HOTEL DOLOMITI RISTORANTE PIZZERIA","RISTORANTE / PIZZERIA","MAI","VIALE VENEZIA, 3",39100,"BOLZANO","BZ",46.4991800144777,11.3454599917612
"HOTEL ENGEL RISTORANTE","RISTORANTE / PIZZERIA","GIO","PIAZZA CHIESA, 7",39020,"SLUDERNO","BZ",46.6649899849039,10.5845400088395
"HOTEL GREIF RISTORANTE","RISTORANTE / PIZZERIA","MAR","VIA GENERALE I. VERDROSS, 40",39024,"MALLES VENOSTA","BZ",46.6905200046909,10.5452500053426
"HOTEL KRONE PIZZERIA","RISTORANTE / PIZZERIA","GIO","VIA RAGEN DI SOPRA, 8",39031,"BRUNICO","BZ",46.7949500106251,11.9409200325333
"HOTEL LAMM ALBERGO RISTORANTE","RISTORANTE","MAI","VIA PRINCIPALE, 67",39027,"CURON VENOSTA","BZ",46.804045,10.5991804110001
"HOTEL NEUWIRT RISTORANTE","RISTORANTE / PIZZERIA","","VIA KLAUSBERG, 28",39030,"VALLE AURINA","BZ",46.9795536586555,11.9402691171041
"HOTEL ORTLERSPITZ","RISTORANTE / PIZZERIA","MAI","VIA PRINCIPALE, 15",39027,"CURON VENOSTA","BZ",46.804045,10.5991804110001
"HOTEL POST REIFER","RISTORANTE / PIZZERIA","MAI","VIA STAZIONE, 1",39045,"FORTEZZA","BZ",46.7889900164627,11.6113399954565
"HOTEL POST RISTORANTE","RISTORANTE","XXX","VIA BASTIONI, 9",39031,"BRUNICO","BZ",46.7962000038457,11.9367799590979
"HOTEL POST RISTORANTE PIZZERIA","RISTORANTE / PIZZERIA","XXX","VIA PRINCIPALE, 26",39029,"STELVIO","BZ",46.5281800164507,10.5869799808538
"HOTEL RISTORANTE HELL","RISTORANTE","MAI","PIAZZA CENTRALE, 3",39035,"MONGUELFO TESIDO","BZ",46.7568299950831,12.1056299619869
"HOTEL SCHOENWIES RISTORANTE","RISTORANTE","XXX","VIA PRINCIPALE, 19",39040,"TRODENA NEL PARCO NATURALE","BZ",46.3233299908802,11.3514200278332
"HOTEL SENONER RISTORANTE","RISTORANTE","LUN","V. LUNGO RIENZA, 22",39042,"BRESSANONE","BZ",46.7159900100511,11.6627099978098
"HOTEL SONNENHEIN RISTORANTE","RISTORANTE","MAI","VIA FALZEBEN, 63",39010,"AVELENGO","BZ",46.653289979628,11.220769961933
"HUBENBAUER TRATTORIA","TRATTORIA","S&D","VICOLO OMBROSO, 12",39040,"VARNA","BZ",46.7377500174277,11.6356800364497
"HUBER BAR  RISTORANTE","RISTORANTE","MAI","LOCALITA' BRAIES DI DENTRO, 6",39030,"BRAIES","BZ",46.7190999894958,12.1300399918715
"HUBERTUS RISTORANTE PIZZERIA","RISTORANTE / PIZZERIA","MAI","V. MARCONI, 17",39049,"VIPITENO","BZ",46.8931800065996,11.4316200052535
"HUBERTUS RISTORANTE PIZZERIA","RISTORANTE / PIZZERIA","MAR","VIA PUSTERIA, 11",39030,"VANDOIES","BZ",46.8145285314359,11.7534270297924
"HUBERTUSHOF RESTAURANT PIZZERIA","RISTORANTE / PIZZERIA","XXX","VIA MARCONI, 19",39049,"VIPITENO","BZ",46.8934799949143,11.431410038579
"HUMUS BIO BISTRO RISTORANTE","RISTORANTE / PIZZERIA","DOM","VIA ARGENTIERI, 16",39100,"BOLZANO","BZ",46.4991200000509,11.3535099715709
"I DUE MONDI BAR BISTRO'","RISTORANTE","MAI","VIA VOITSBERG, 12",39040,"VARNA","BZ",46.73964998533,11.6365899758584
"I FUDLE'  RISTORANTE PIZZERIA","RISTORANTE / PIZZERIA","LUN","VIA DURSAN, 86",39047,"SANTA CRISTINA VAL GARDENA","BZ",46.5581200069553,11.7258799596345
"I SUSHI  RISTORANTE","RISTORANTE","XXX","VIALE DRUSO, 91",39100,"BOLZANO","BZ",46.4951300045918,11.3358099904544
"ICHIBAN RISTORANTE","RISTORANTE / PIZZERIA","LUN","VIA RENON, 12",39100,"BOLZANO","BZ",46.4999000199604,11.364000007214
"IL CAVALLINO BIANCO RISTORANTE PIZZERIA","RISTORANTE / PIZZERIA","MAI","VIA J.G PLAZER STRASSE, 15",39057,"APPIANO","BZ",46.8179274486481,11.6572440408501
"IL CAVALLINO RISTORANTE","RISTORANTE","XXX","VIA DELLE PALADE, 105",39012,"MERANO","BZ",46.656480006248,11.1487900331378
"IL CAVALLINO TRATTORIA","TRATTORIA","MAI","VIA PAESE, 22",39050,"SAN GENESIO ATESINO","BZ",46.5355629206416,11.33093707875
"IL GHIOTTONE","TAKE AWAY / PIZZ. ASPORTO","MAI","VIA CITTA' NUOVA, 42",39049,"VIPITENO","BZ",46.8968099993173,11.4318999608196
"IL GIARDINETTO RISTORANTE PIZZERIA","RISTORANTE / PIZZERIA","MAR","VIA TRE SANTI, 1",39100,"BOLZANO","BZ",46.4999299852643,11.3364200253675
"IL NURAGHE RISTORANTE","RISTORANTE","MER","VIA CLAUDIA AUGUSTA, 67",39100,"BOLZANO","BZ",46.4828599879904,11.3427699875751
"IL PORTICHETTO BAR","BAR TAVOLA CALDA","LUN","VIA SASSARI, 26",39100,"BOLZANO","BZ",46.488790016849,11.3219500106396
"IL TINELLO RISTORANTE","RISTORANTE","DO","VIA FRANCESCO CRISPI, 9",39100,"BOLZANO","BZ",46.4985499887255,11.3585699588799
"IL TRAFORO RISTORANTE","RISTORANTE / PIZZERIA","MAI","PIAZZA STAZIONE, 2",39045,"FORTEZZA","BZ",46.788739984291,11.6109000293589
"IL VASCELLO RISTORANTE","RISTORANTE / PIZZERIA","MAI","CORSO ITALIA, 27",39100,"BOLZANO","BZ",46.4980599826658,11.3402300194559
"IMBISS ANGI","RISTORANTE / PIZZERIA","MAI","FRAZIONE MULES, 35",39040,"CAMPO DI TRENS","BZ",46.8548900060611,11.52477002308
"IMBISS ANGI","GASTRONOMIA/ROSTICCERIA","MAI","PARCHEGGIO MONTE CAVALLO OST, SNC",39049,"VIPITENO","BZ",46.9109464567258,11.430088538274
"IMBISS BOZEN ZENTRUM","FAST FOOD","DOM","VIA ALTO ADIGE, 0",39100,"BOLZANO","BZ",46.4961985593963,11.3549825843043
"IMBISS BY DRINI GASTRONOMIA","GASTRONOMIA/ROSTICCERIA","MAI","VIALE DELLA STAZIONE, 5",39100,"BOLZANO","BZ",46.4973600099317,11.3555200357714
"IMBISS HERBERT","FAST FOOD","DOM","PIAZZA MERCATO, 24",39043,"CHIUSA","BZ",46.6438299960661,11.5707900242744
"IMBISS HERBERT","BAR TAVOLA CALDA","DOM","V. OBERSTADT, 74",39043,"CHIUSA","BZ",46.6415999907263,11.5682300234066
"IMBISS SCHORSCH FAST FOOD","FAST FOOD","XXX","VIA KONRAD LECHNER, 5",39040,"VARNA","BZ",46.7312200119399,11.6522799765935
"IMBISS STUBE FRIEDHEIM","RISTORANTE / PIZZERIA","MAI","VIA MOELTNER, 44",39010,"MELTINA","BZ",46.5866999917602,11.2532800115893
"IMBISS TUBE BAR","BAR TAVOLA CALDA","LUN","VIA HANS FEUR, 11",39040,"TERMENO SULLA STRADA DEL VINO","BZ",46.3422300090744,11.2416099716172
"INSTANBUL KEBAP HOUSE","FAST FOOD","MAI","VIA RESIA, 72",39100,"BOLZANO","BZ",46.4872000117261,11.3183499832257
"INSUSHI FOOD & DRINK BAR","BAR TAVOLA CALDA","MAI","PIAZZA DELLA VITTORIA, 20",39100,"BOLZANO","BZ",46.5001300193836,11.3442700129674
"INSUSHI RISTORANTE","RISTORANTE / PIZZERIA","MAI","VIA DALMAZIA, 39",39100,"BOLZANO","BZ",46.4915300190875,11.3382699952173
"INTERNZIONALE RISTORO BAR","BAR TAVOLA FREDDA","MAI","V. ROMA, 13",39100,"BOLZANO","BZ",46.493989981941,11.340790014407
"INTERSPAR ""A""  BZ BOLZANO SUPERMERCATO","MARKET CON GASTR./SUPERMERCATO","XXX","VIA BRUNO BUOZZI, 30",39100,"BOLZANO","BZ",46.4697369962824,11.3232032502084
"IPPOPOTAMUS RISTORANTE","RISTORANTE","XXX","V. VILPIANO, 2/3",39010,"NALLES","BZ",46.5428900050665,11.2032299913481
"IRENE BAR RISTORANTE","RISTORANTE / PIZZERIA","MAI","VIA JOHANN GEORG PLAZER, 8",39057,"APPIANO SULLA STRADA DEL VINO","BZ",46.4556900069377,11.2588999938494
"IRIS ALBERGO RISTORANTE","RISTORANTE / PIZZERIA","SAB","VIA NAZIONALE, 12",39024,"MALLES VENOSTA","BZ",46.6862000137038,10.5525499724562
"ISTANBUL KEBAB HOUSE","FAST FOOD","MAI","VIA JOHANN BASTISS PURGER, 29",39046,"ORTISEI","BZ",46.5914750000001,11.6853984530001
"ISTANBUL KEBAP & PIZZA","TAKE AWAY / PIZZ. ASPORTO","MAI","VIA ROMA, 23",39012,"MERANO","BZ",46.6659300153451,11.1611799947737
"ITALIA & AMORE VAI","RISTORANTE","XXX","VIA DOTTOR JOSEF WEINGARTNER, 26",39022,"LAGUNDO","BZ",46.6796799826807,11.1340399790248
"ITALIA E AMORE RISTORANTE","RISTORANTE","LUN","VIA ARGENTIERI, 3",39100,"BOLZANO","BZ",46.4989599895193,11.354169962627
"ITALISSIMO RISTORANTE PIZZERIA","RISTORANTE / PIZZERIA","XXX","VIA GALILEO GALILEI, 20",39100,"BOLZANO","BZ",46.4864600154042,11.3369200058919
"JELLO BAR","BAR TAVOLA FREDDA","DOM","VIA SAN LORENZO, 6",39031,"BRUNICO","BZ",46.793104650822,11.9308045841431
"JOCHELE RISTORANTE","RISTORANTE / PIZZERIA","MAR","VIA MICHAEL PACHER, 2",39030,"FALZES","BZ",46.8097799861849,11.8827900252691
"JOE J WURSTELBUDE","BAR TAVOLA FREDDA","DOM","V. BRENNERO, 1",39042,"BRESSANONE","BZ",46.7216399995245,11.6548699846747
"JOE'S WUERSTELBUDE FASTFOOD","FAST FOOD","MAI","VIA BRENNERO, 1",39042,"BRESSANONE","BZ",46.7216399995245,11.6548699846747
"JOLLY RISTORANTE PIZZERIA","RISTORANTE / PIZZERIA","LUN","VIA NAZIONALE, 28",39040,"SALORNO SULLA STRADA DEL VINO","BZ",46.2409800133859,11.2081700336226
"JONA RISTORANTE BAR PIZZERIA","BAR TAVOLA CALDA","MAI","VIA FRANCESCO CRISPI, 38",39100,"BOLZANO","BZ",46.4988599934144,11.3602500275524
"JULIA RISTORANTE CAFE'","RISTORANTE / PIZZERIA","MAI","VIA ARTIGIANI, 10",39057,"APPIANO SULLA STRADA DEL VINO","BZ",46.4597900148759,11.2665700219881
"JUMP BAR","BAR TAVOLA CALDA","DO","CORSO ITALIA, 38",39100,"BOLZANO","BZ",46.4961000003368,11.3399600383546
"KAISERAU PIZZERIA","RISTORANTE / PIZZERIA","MAI","VIA PETER MAYR, 65",39054,"RENON","BZ",46.5387599899148,11.458019982771
"KAMPAN BAR RISTORANTE","RISTORANTE","DOM","VIA JULIUS DURST, 66",39042,"BRESSANONE","BZ",46.691910017604,11.643509991301
"KAMPILL IMBISS RISTORANTE PIZZERIA","RISTORANTE / PIZZERIA","DO","VIA HILDEGARD STRAUB, 23",39100,"BOLZANO","BZ",46.4949399868468,11.3743400067903
"KARMASTORE RISTORANTE PIZZERIA","RISTORANTE / PIZZERIA","DOM","V. GALVANI, 39",39100,"BOLZANO","BZ",46.4693999925952,11.3299300015578
"KARO CAFE","BAR TAVOLA CALDA","DOM","PRATO ALL' ISARCO, 53",39053,"CORNEDO ALL'ISARCO","BZ",46.4962095127906,11.4472618214846
"KEBAB & VEGGIE","FAST FOOD","MAI","VIA MUSEO, 12",39100,"BOLZANO","BZ",46.4997100022154,11.3516999833992
"KHALD SHOP","MARKET CON GASTR./SUPERMERCATO","MAI","VIALE MOZART, 2",39042,"BRESSANONE","BZ",46.7100199995143,11.6508699728413
"KIRCHERHOF RISTORANTE","RISTORANTE / PIZZERIA","MAI","FRAZIONE ALBES, 12",39042,"BRESSANONE","BZ",46.6753400008545,11.6329000106234
"KIRCHPLATZ CAFE","BAR TAVOLA FREDDA","DOM","PIAZZA DELLA CHIESA, 1",39058,"SARENTINO","BZ",46.6427825934453,11.3565380179121
"KIRCHSTEIGER RISTORANTE PIZZERIA","RISTORANTE / PIZZERIA","LUN","FRAZIONE SANTA VALBURGA, 179",39016,"ULTIMO","BZ",46.5511624975257,11.0071367982091
"KLEMENS PASTICCERIA CAFFE'","BAR TAVOLA CALDA","MAI","VIA RIO SCALERES, 54",39042,"BRESSANONE","BZ",46.7218699989477,11.652490027087
"KLOSTERSEPP ALBERGO BAR PIZZERIA","RISTORANTE / PIZZERIA","DOM","VILLAGGIO SAN GIUSEPPE, 30",39043,"CHIUSA","BZ",46.645439992028,11.5734599957119
"KNAPPENSTUBE RISTORANTE","RISTORANTE / PIZZERIA","XXX","STRADA MASSERIA, 48",39040,"RACINES","BZ",46.928780002952,11.2713300209824
"KOENIG BAR PIZZERIA","RISTORANTE / PIZZERIA","MAI","V. STAZIONE, 9",39100,"BOLZANO","BZ",46.4974199824489,11.3586800132686
"KOENIG RISTORANTE PIZZERIA","RISTORANTE / PIZZERIA","MAI","V.LE STAZIONE, 9",39100,"BOLZANO","BZ",46.4974199824489,11.3586800132686
"KOI TAKE AWAY","TAKE AWAY / PIZZ. ASPORTO","DO","VIA MUSEO, 29",39100,"BOLZANO","BZ",46.4998299891594,11.3506600406722
"KOLPING MENSA","MENSA","S&D","VIA FALLMERAYER, 4",39042,"BRESSANONE","BZ",46.7139499805467,11.6543199641883
"KOLPING RISTORANTE","RISTORANTE / PIZZERIA","DO","VIA CITTA' NUOVA, 24",39049,"VIPITENO","BZ",46.8976799989574,11.4315999725049
"KONIG","BAR TAVOLA CALDA","MAI","VIALE DELLA STAZIONE, 9",39100,"BOLZANO","BZ",46.4974799968756,11.3552499708511
"KONSUM COOP","GASTRONOMIA/ROSTICCERIA","DOM","VIA HANS FEUR, 48",39040,"TERMENO SULLA STRADA DEL VINO","BZ",46.3440700044595,11.2446400296151
"KONSUM COOP GASTRONOMIA","GASTRONOMIA/ROSTICCERIA","MAI","VIA HANS FEUR, 6",39040,"TERMENO SULLA STRADA DEL VINO","BZ",46.3417799846929,11.2409700133097
"KOSTNER BAR","MARKET CON GASTR./SUPERMERCATO","XXX","VIA FORCH, 2",39040,"VARNA","BZ",46.7595599809473,11.637980030681
"KREUZWIRT RISTORANTE","RISTORANTE / PIZZERIA","DOM","VIA PRINCIPALE, 47",39025,"NATURNO","BZ",46.6481799754859,10.9888394151763
"KRONENWIRT","RISTORANTE","MAI","VIA FIENILI, 4",39042,"BRESSANONE","BZ",46.7173399993765,11.6550500279549
"KUENSEROF BAR RISTORANTE PIZZERIA","RISTORANTE / PIZZERIA","GIO","V. PASSO GIOVIO, 15",39010,"CAINES","BZ",46.6958200077972,11.1747699934872
"KUPPELWIES BAR RISTORANTE","RISTORANTE","MAI","KUPPELWIES, 385",39016,"ULTIMO","BZ",46.53011,10.95834
"KUTSCHERHOF RISTORANTE PIZZERIA","RISTORANTE / PIZZERIA","DOM","PIAZZA PALAZZO VESCOVILE, 6",39042,"BRESSANONE","BZ",46.7152793355688,11.6562302575702
"KYO SUSHI RISTORANTE","RISTORANTE","MAI","VIA LUIGI GALVANI, 3",39100,"BOLZANO","BZ",46.4770299971462,11.3335499779012
"K2 CHICKEN E PIZZA","TAKE AWAY / PIZZ. ASPORTO","DOM","VIA SANTA CROCE, 9",39042,"BRESSANONE","BZ",46.7157400197889,11.6538700236258
"K2 PIZZA KEBAB FAST FOOD","FAST FOOD","MAI","VIA PONTE AQUILA, 2",39042,"BRESSANONE","BZ",46.7165300141631,11.6581400165605
"K29 FOOD & DRINK BAR","BAR TAVOLA CALDA","","VIA INNSBRUCK, 29/A",39100,"BOLZANO","BZ",46.4936349683707,11.3812865969869
"LA BOT RISTORANTE","RISTORANTE / PIZZERIA","MER","VIA NAZIONALE, 27",39040,"SALORNO SULLA STRADA DEL VINO","BZ",46.3477400207649,11.2973399885452
"LA BOTTEGA DELLA PIZZA FAST FOOD","FAST FOOD","LUN","VIA BRENNERO, 29/B",39100,"BOLZANO","BZ",46.5011800203943,11.3647500199102
"LA BRUSCHETTA RISTORANTE PIZZERIA","RISTORANTE / PIZZERIA","MAI","VIA ROMA, 144",39012,"MERANO","BZ",46.6626099854068,11.1631400190122
"LA CAMBUSA DEL LAZZARONE RISTORANTE","RISTORANTE / PIZZERIA","XXX","VIA DOKTOR JOSEPH STREITER, 7",39100,"BOLZANO","BZ",46.500180017436,11.356250015719
"LA CANTINA RISTORANTE PIZZERIA","RISTORANTE / PIZZERIA","MAR","PASSAGGIO PORTICI, 30",39057,"APPIANO SULLA STRADA DEL VINO","BZ",46.4547700092452,11.258349973363
"LA CARBONARA TUTTO DIVERSO RISTORANTE PIZZERIA","RISTORANTE / PIZZERIA","XXX","PIAZZA GIACOMO MATTEOTTI, 6",39100,"BOLZANO","BZ",46.4898799995379,11.3364800397942
"LA CIANO RISTORANTE PIZZERIA","RISTORANTE / PIZZERIA","MAI","STRADA BOSCDAPLAN, 25",39036,"BADIA","BZ",46.5875000025088,11.9038900415897
"LA CIASOTA RISTORANTE","RISTORANTE / PIZZERIA","S&D","ZONA ARTIGIANALE, 19",39030,"LA VALLE","BZ",46.8140104024545,11.8964982786786
"LA DINASTIA RISTORANTE PIZZERIA","RISTORANTE / PIZZERIA","MAI","VIA PALERMO, 37",39100,"BOLZANO","BZ",46.4913799830207,11.3324999768904
"LA DOLCE VITA BAR","BAR TAVOLA FREDDA","MAI","CORSO DELLA LIBERTA', 13",39100,"BOLZANO","BZ",46.5033099877198,11.334079965639
"LA FEMME","BAR TAVOLA CALDA","DOM","V. STAZIONE, 9",39100,"BOLZANO","BZ",46.4974199824489,11.3586800132686
"LA GROLLA RISTORANTE","RISTORANTE","XXX","VIALE DRUSO, 98",39100,"BOLZANO","BZ",46.494859981581,11.3253399875599
"LA GROTTA DEL CORSA","BAR TAVOLA FREDDA","MAI","C.SO LIBERTA', 7",39100,"BOLZANO","BZ",46.5028199816601,11.3342399761706
"LA LOCANDA DI ANTONELLA RISTORANTE PIZZERIA","RISTORANTE / PIZZERIA","LUN","V. RESIA, 28/C",39100,"BOLZANO","BZ",46.4881000185796,11.3157500006797
"LA LOCANDA TENNIS","BAR TAVOLA CALDA","MAI","VIA PIAVE, 46",39012,"MERANO","BZ",46.6639899819456,11.1591199744302
"LA NUOVA BOLZANO RISTORANTE","RISTORANTE","XXX","VIA INNSBRUCK, 29",39100,"BOLZANO","BZ",46.4936349683707,11.3812865969869
"LA PIADINERIA","FAST FOOD","XXX","VIA GALILEO GALILEI, 20",39100,"BOLZANO","BZ",46.4864600154042,11.3369200058919
"LA PIADINERIA ROMAGNOLA TAKE AWAY","TAKE AWAY / PIZZ. ASPORTO","LUN","VIA DALMAZIA, 77",39100,"BOLZANO","BZ",46.4918999962937,11.3338199590025
"LA PIAZZA BAR","BAR TAVOLA CALDA","MAI","PIAZZA W VON DER VOGELWEIDE, 7",39100,"BOLZANO","BZ",46.4981100000001,11.35441
"LA PIAZZETTA BAR RISTORANTE","BAR TAVOLA CALDA","DOM","VIA BRENNERO, 1",39100,"BOLZANO","BZ",46.5004000004849,11.3610800036048
"LA PIGNATTA - IL TURCO","RISTORANTE / PIZZERIA","MAI","V. ALTO ADIGE, 3",39100,"BOLZANO","BZ",46.4973600099317,11.3551099930681
"LA PIGNATTA RISTORANTE PIZZERIA","RISTORANTE / PIZZERIA","DOM","VIA ALTO ADIGE, 3",39100,"BOLZANO","BZ",46.4973600099317,11.3551099930681
"LA PIZZETTA BAR","BAR TAVOLA CALDA","MAI","VIA BASTIONI MAGGIORI, 29",39042,"BRESSANONE","BZ",46.7169900130094,11.6554899940526
"LA PLAZA BAR","BAR TAVOLA CALDA","MAI","CORSO ITALIA, 20",39100,"BOLZANO","BZ",46.4989799803584,11.3396899734343
"LA RUSTICA ROSTICCERIA GASTRONOMIA","GASTRONOMIA/ROSTICCERIA","DO","VIA PIACENZA, 50",39100,"BOLZANO","BZ",46.4866199840264,11.3210300129471
"LA TOR RISTORANTE","RISTORANTE / PIZZERIA","MER","STRADA COLZ, 9",39036,"BADIA","BZ",46.5884399910404,11.9030599817182
"LA TORCIA PIZZERIA","RISTORANTE / PIZZERIA","DOM","VIA DEI CONCIAPELLI, 25",39100,"BOLZANO","BZ",46.4989700058936,11.3575000089395
"LA VECCHIA BOLZANO SELF SERVICE","SELF-SERVICE","DO","PIAZZA DELLA PARROCCHIA, 22",39100,"BOLZANO","BZ",46.4972100157743,11.3533399865745
"LA VECCHIA LOCOMOTIVA RISTORANTE PIZZERIA","RISTORANTE / PIZZERIA","LUN","VIA SAN VALENTINO, 12",39041,"BRENNERO","BZ",47.0042799958048,11.5046399605948
"LAGHETTO SINIGO","RISTORANTE / PIZZERIA","MAI","VIA ENRICO FERMI, 31",39012,"MERANO","BZ",46.6373100069525,11.1739899735777
"LAHNERHOF RISTORANTE","RISTORANTE / PIZZERIA","MAI","VIA TUNES, 49",39049,"VIPITENO","BZ",46.8912600059487,11.4107400138913
"LALESSANDRA RISTORANTE","RISTORANTE / PIZZERIA","DOM","VIA CASERME, 7",39012,"MERANO","BZ",46.6605300161338,11.1590799927521
"LAMM HOTEL RISTORANTE","RISTORANTE / PIZZERIA","MAI","VIA CITTA' NUOVA, 16",39049,"VIPITENO","BZ",46.8981299814294,11.4314699691867
"LAMM RISTORANTE PIZZERIA","RISTORANTE / PIZZERIA","MAI","VIA DIGON, 6",39040,"CASTELROTTO","BZ",46.5734300141099,11.6591999920361
"LAMP RESTAURANT","RISTORANTE","S&D","VIA STAZIONE, 9",39030,"VALDAORA","BZ",46.7631927343027,12.0319737263924
"LAMP'L RISTORANTE PIZZERIA","RISTORANTE / PIZZERIA","GIO","VIA DOTTOR H. FLORA, 4",39024,"MALLES VENOSTA","BZ",46.6914599932225,10.5440600265488
"LANAHOF BAR RISTORANTE","RISTORANTE","XXX","VIA MARIA HILF STRASSE, 3",39011,"LANA","BZ",46.615779998999,11.1459400184201
"LANDHAUS BAR","BAR TAVOLA FREDDA","MAI","PIAZZA DELLA STAZIONE, 6",39100,"BOLZANO","BZ",46.4970800124561,11.3579900149992
"LANG JAN BAR RISTORANTE","RISTORANTE / PIZZERIA","MAI","VIA SAN LORENZO, 13",39031,"BRUNICO","BZ",46.7926099928061,11.9307100362753
"LANTERNE RESTAURANT","RISTORANTE","MAI","VIA SARING, 33",39020,"PARCINES","BZ",46.6657399976001,11.0699100378295
"LATEMAR RISTORANTE","RISTORANTE","LUN","VIA CENTRO, 39",39050,"NOVA PONENTE","BZ",46.409679980208,11.5058799793505
"LATTERIA AGOSTINI GASTRONOMIA","GASTRONOMIA/ROSTICCERIA","DOM","VIA RESIA, 84",39100,"BOLZANO","BZ",46.4863699937642,11.318809982072
"LATTERIA DA RAFFAELE ANGELA E DANIEL","GASTRONOMIA/ROSTICCERIA","DOM","VIA NAPOLI, 3",39100,"BOLZANO","BZ",46.4929800045178,11.3433800224882
"LE BON BAR PIZZERIA RISTORANTE","RISTORANTE","DOM","VIA ROMA, 76",39100,"BOLZANO","BZ",46.4907399828037,11.3418199826692
"LE BON BAR RISTORANTE PIZZERIA","RISTORANTE / PIZZERIA","MAI","VIA ROMA, 76",39100,"BOLZANO","BZ",46.4907399828037,11.3418199826692
"LE BONTA'","BAR TAVOLA FREDDA","MAI","VIA ASLAGO, 54",39100,"BOLZANO","BZ",46.4822699858259,11.3433299825263
"LEBENSMITTELGESCHAST JOCHER BAR","BAR TAVOLA CALDA","XXX","VIA CENTRALE, 27",39042,"BRESSANONE","BZ",46.6994199933016,11.6759499682467
"LEITNER HOTEL","BAR TAVOLA FREDDA","DOM","VIA KATHARINA LANZ, 83",39037,"RIO DI PUSTERIA","BZ",46.7977600017552,11.6683599872833
"LEONE D'ORO RISTORANTE","RISTORANTE","LUN","PIAZZA CENTRALE, 4",39035,"MONGUELFO TESIDO","BZ",46.7565199903941,12.1054299697771
"LEONE D'ORO RISTORANTE PIZZERIA","RISTORANTE / PIZZERIA","DOM","VIA CENTRALE, 32",39031,"BRUNICO","BZ",46.7958899991568,11.9388699866547
"LESS IS MORE BAR","BAR TAVOLA FREDDA","DOM","CORSO DELLA LIBERTA', 31",39100,"BOLZANO","BZ",46.5013000073383,11.3415199943546
"LEVINAS SNACK & BAR","BAR TAVOLA CALDA","MAI","PIAZZA ANGELA NIKOLETTI, 6",39100,"BOLZANO","BZ",46.4876350000001,11.3436766670001
"LEX HOTEL RISTORANTE","RISTORANTE","MAR","LOCALITA PRATI, 104",39040,"VAL DI VIZZE","BZ",46.90108,11.47078
"L'FANA' RISTORANTE","RISTORANTE","MAI","V. CENTRALE, 58",39036,"BADIA","BZ",46.5846550000001,11.911595135
"LIBERTY CAFE'","BAR TAVOLA FREDDA","S&D","V. LEONARDO DA VINCI, 16",39100,"BOLZANO","BZ",46.4990800183728,11.3497899991226
"LIFTSTUBERL RISTORANTE","RISTORANTE / PIZZERIA","DOM","VIA MARINZEN, 35",39040,"CASTELROTTO","BZ",46.5635200061666,11.5627399606457
"LIGHTCAFE 42 & RESTAURANT","RISTORANTE","DOM","VIA ORAZIO, 42",39100,"BOLZANO","BZ",46.4976799890854,11.3411800243618
"LILIE HOTEL RISTORANTE","RISTORANTE / PIZZERIA","MAI","VIA CITTA' NUOVA, 49",39049,"VIPITENO","BZ",46.8968499809955,11.4320499968864
"LITALISSIMO RISTORANTE","RISTORANTE","MAI","VIA SAN VALENTINO, 9",39041,"BRENNERO","BZ",47.0044299899621,11.505479994931
"LIVING LOUNGE BAR","BAR TAVOLA CALDA","XXX","VIA BASTIONI MAGGIORI, 12",39042,"BRESSANONE","BZ",46.7172099960582,11.65650998785
"LO SPUNTINO TAKE AWAY","TAKE AWAY / PIZZ. ASPORTO","MAI","VIA ROMA, 53",39100,"BOLZANO","BZ",46.4923700115142,11.3416000415299
"LO STUZZICHINO BAR","BAR TAVOLA CALDA","MAI","VIA SAN QUIRINO, 3",39100,"BOLZANO","BZ",46.4988200117363,11.3450999890198
"LODENWIRT  RISTORANTE PIZZERIA","RISTORANTE / PIZZERIA","MAI","VIA PUSTERIA, 1",39030,"VANDOIES","BZ",46.8145285314359,11.7534270297924
"LOEWEN RISTORANTE PIZZERIA","RISTORANTE / PIZZERIA","MAR","VIA DOTTOR JOSEF WEINGARTNER, 20",39022,"LAGUNDO","BZ",46.6795900029501,11.1357300221621
"LOEWENGRUBE BAR RISTORANTE","RISTORANTE","MAI","PIAZZA DELLA DOGANA, 3",39100,"BOLZANO","BZ",46.5003399860581,11.3606100302937
"LOEWENGRUBE RISTORANTE","RISTORANTE","DO","PIAZZA DELLA DOGANA, 3",39100,"BOLZANO","BZ",46.5003399860581,11.3606100302937
"LONDRA BAR","BAR TAVOLA CALDA","DOM","VIA DANTE, 1",39100,"BOLZANO","BZ",46.4974699805013,11.3493800402383
"LONG DA RISTORANTE CINESE","RISTORANTE / PIZZERIA","XXX","VIA PALERMO, 11",39100,"BOLZANO","BZ",46.4928312841767,11.332883136588
"LORENZ RESIDENCE RISTORANTE PIZZERIA","RISTORANTE / PIZZERIA","MAI","VIA FAERBER, 5",39041,"BRENNERO","BZ",46.9355999803802,11.4461600088729
"LOWENWIRT RISTORANTE","RISTORANTE","MER","V. SAN GIUSEPPE, 26",39030,"SESTO","BZ",46.6887000001449,12.3670900204997
"L'ULIVO PIZZERIA KEBAB","TAKE AWAY / PIZZ. ASPORTO","MAI","VIALE DUCA AMEDEO D' AOSTA, 77",39100,"BOLZANO","BZ",46.4966700116622,11.339229974588
"LUNAS RISTORANTE","RISTORANTE / PIZZERIA","MAI","VIA PIAVE, 15",39100,"BOLZANO","BZ",46.5001899919008,11.3578200300028
"L'UNIVERSO BAR PIZZERIA","RISTORANTE / PIZZERIA","MAI","VIA CENTRALE, 55",39031,"BRUNICO","BZ",46.7955199800411,11.9373800195462
"MAGDALENER HOF HOTEL RISTORANTE","RISTORANTE / PIZZERIA","LUN","VIA RENCIO, 48",39100,"BOLZANO","BZ",46.4984400181558,11.3759199955389
"MAHARAJA BAR RISTORANTE","RISTORANTE / PIZZERIA","MAI","VIA ORAZIO, 42",39100,"BOLZANO","BZ",46.4976799890854,11.3411800243618
"MAIR EGON MARKET","MARKET CON GASTR./SUPERMERCATO","DOM","SCHLOSSERGASSE, 3",39040,"NAZ-SCIAVES","BZ",46.75466000417,11.6772500014292
"MALU' BAR","BAR TAVOLA FREDDA","MAI","VIA SASSARI, 51",39100,"BOLZANO","BZ",46.4883699996808,11.3201299641841
"MAMMA MIA FAST FOOD","FAST FOOD","MAI","VIA ROMA, 66",39100,"BOLZANO","BZ",46.4912799869158,11.341550001568
"MAMMALENA PIADINERIA BAR","BAR TAVOLA CALDA","XXX","CORSO DELLA LIBERTA', 40",39100,"BOLZANO","BZ",46.5015899792787,11.3408999849767
"MAMMAMIA TAKE AWAY","TAKE AWAY / PIZZ. ASPORTO","DO","VIA ROEN, 41",39100,"BOLZANO","BZ",46.4971100196695,11.335830023203
"MANA' FOOD DRINK","BAR TAVOLA FREDDA","MAI","VIA INNSBRUCK, 29",39100,"BOLZANO","BZ",46.4936349683707,11.3812865969869
"MANAGER'S BAR","BAR TAVOLA CALDA","DOM","VIA DEL RONCO, 25",39100,"BOLZANO","BZ",46.4923400043008,11.3265700318509
"MANDELHOF HOTEL RISTORANTE","RISTORANTE","XXX","MUHLWEG, 8",39057,"APPIANO SULLA STRADA DEL VINO","BZ",46.4631799917962,11.2784099631376
"MANIA PIZZA TAKE AWAY","TAKE AWAY / PIZZ. ASPORTO","DOM","CORSO DELLA LIBERTA', 89",39012,"MERANO","BZ",46.6707600032309,11.1588899750071
"MANUS BAR RISTORANTE","RISTORANTE / PIZZERIA","DOM","VIA ALESSANDRO VOLTA, 3",39100,"BOLZANO","BZ",46.4788391577183,11.3362116822275
"MARCO POLO FAST FOOD RISTORANTE","RISTORANTE","DO","PASSEGGIATA GROSS GERAU, 5/C",39031,"BRUNICO","BZ",46.7971699995907,11.9385799728048
"MAREST CATERING SRL","UFFICIO","MAI","VIA MARIE CURIE, 11",39100,"BOLZANO","BZ",46.4705900132985,11.3252099842416
"MARI DRIVE BAR RESTAURANT SELF SERVICE","RISTORANTE","DOM","V. G. CAPUONI, 1",39100,"BOLZANO","BZ",46.4778499987339,11.3341699872791
"MARI FLY BAR RISTORANTE SELF SERVICE","RISTORANTE","DOM","V. F. BARACCA, 1",39100,"BOLZANO","BZ",46.4663478614484,11.3309535298948
"MARIA THERESIA HOTEL RISTORANTE","RISTORANTE / PIZZERIA","XXX","VIA NAZIONALE, 15",39028,"SILANDRO","BZ",46.6258799827778,10.7800800030958
"MARIO GELATERIA BAR","BAR TAVOLA FREDDA","MAI","VIA SANTA GELTRUDE, 48",39100,"BOLZANO","BZ",46.4868900070371,11.3483799953705
"MARKUS WALDTHALER BAR","RISTORANTE / PIZZERIA","MAI","PIAZZA DOTTOR KARL WEISER, 1",39018,"TERLANO","BZ",46.53623,11.249434471
"MARLY ALBERGO RISTORANTE","RISTORANTE / PIZZERIA","LUN","VIA JOHN FITZGERALD KENNEDY, 280",39055,"LAIVES","BZ",46.4208999957987,11.3318900257963
"MARLY BAR","BAR TAVOLA FREDDA","MAI","VIA JOHN FITZGERALD KENNEDY, 280",39055,"LAIVES","BZ",46.4208999957987,11.3318900257963
"MARYLIN BAR","BAR TAVOLA CALDA","XXX","VIA DELLA POSTA, 12",39100,"BOLZANO","BZ",46.4979099885085,11.3526899699833
"MASO DELLA PIEVE PIZZERIA RISTORANTE","RISTORANTE / PIZZERIA","MAI","VIA MASO DELLA PIEVE, 9",39100,"BOLZANO","BZ",46.4707900055082,11.3370999653531
"MATRIOSKA E DELIZIE RUSSE","GASTRONOMIA/ROSTICCERIA","MAI","VIA ROMA, 84",39100,"BOLZANO","BZ",46.4901900042268,11.3417800009911
"MATTEI CAFFE' BAR","BAR TAVOLA CALDA","DOM","PIAZZA DELLA PARROCCHIA, 2",39100,"BOLZANO","BZ",46.497510004089,11.3548700191802
"MATTEOTTI KEBAB","FAST FOOD","MAI","PIAZZA GIACOMO MATTEOTTI, 1",39100,"BOLZANO","BZ",46.4900100028561,11.3362699893006
"MAURICE BAR","BAR TAVOLA FREDDA","DOM","VIA DEGLI OLMI, 1",39040,"ORA","BZ",46.3478300004955,11.2976600096084
"MAUSEFALLE RISTORANTE PIZZERIA","RISTORANTE / PIZZERIA","LUN","VIA WIESENHOF, 64",39032,"CAMPO TURES","BZ",46.9168800054662,11.9575499798905
"MAXI BISTRO","BAR TAVOLA CALDA","DOM","V. ISARCO, 3",39040,"BESSANONE","BZ",46.735420015983,11.6470599787529
"MAXI DRINK & LUNCH BAR","BAR TAVOLA CALDA","XXX","VIA ISARCO, 1",39040,"VARNA","BZ",46.7353799923953,11.6465699726932
"MC DONALD'S FAST FOOD","FAST FOOD","","PIAZZA DELLA PARROCCHIA, 4",39100,"BOLZANO","BZ",46.497959986561,11.3540299848439
"MC DONALD'S FAST FOOD","FAST FOOD","MAI","VIA GALILEO GALILEI, 20",39100,"BOLZANO","BZ",46.4864600154042,11.3369200058919
"MEBO RAST  BAR","BAR TAVOLA CALDA","DOM","STRADA STATALE 38 MEBO 2, SNC",39057,"APPIANO SULLA STRADA DEL VINO","BZ",46.4843108881061,11.2944177145855
"MEBO SUD RISTORANTE","RISTORANTE","MAI","VIA NALLES, 30",39018,"TERLANO","BZ",46.555979981346,11.219639997566
"MEDITERRANEO BISTRO' RISTORANTE PIZZERIA","RISTORANTE / PIZZERIA","MAI","VIA MAINARDO, 22",39012,"MERANO","BZ",46.6728600052525,11.1588599677937
"MEETING","RISTORANTE","DOM","GALL. SERNESI, 19",39100,"BOLZANO","BZ",46.4985299978864,11.3517299906126
"MEHMOOD FOOD","GASTRONOMIA/ROSTICCERIA","DOM","V. RESIA, 144",39100,"BOLZANO","BZ",46.48451000754,11.3200700335764
"MEITINGER CAFE' BAR","RISTORANTE / PIZZERIA","DO","VIA COLLINA D'ARGENTO, 1",39018,"TERLANO","BZ",46.53623,11.249434471
"MENSA  ARMA SINIGO","MENSA RISERVATA","MAI","VIA MONTECATINI, 16",39012,"MERANO","BZ",46.6256900069423,11.1835500370634
"MENSA BTC INTERNA CANTIERE EGEA GLOBAL SERVICES","MENSA RISERVATA","","S.S. 12 KM 496, SNC",39040,"CAMPO DI TRENS","BZ",46.8625206277769,11.509768953923
"MENSA CAMPO BASE ISARCO","MENSA RISERVATA","XXX","LOCALITA PIE DI SOPRA, SNC",39045,"FORTEZZA","BZ",46.798755,11.555474643
"MENSA COOPERATIVA MIOSOTIS","MENSA","DOM","V. CAPITELLO, 16",39040,"ORA","BZ",46.3460302110425,11.2978692531221
"MERANER CAFE","BAR TAVOLA CALDA","DOM","VIA DEI BOTTAI, 24",39100,"BOLZANO","BZ",46.5002899880057,11.3567299634948
"MERANER INN RISTORANTE PIZZERIA","RISTORANTE / PIZZERIA","XXX","VIA NAZIONALE, 88",39012,"MERANO","BZ",46.6331499845875,11.1779500037329
"MERANO 2000 BAR","BAR TAVOLA FREDDA","MAI","VIA OSWALD VON WOLKENSTEIN, 35",39012,"MERANO","BZ",46.6631400150541,11.1503100074596
"MERCATO BAR RISTORANTE","BAR TAVOLA CALDA","S&D","VIA DEL MACELLO, 27",39100,"BOLZANO","BZ",46.4940300055286,11.3683799707184
"MESSNERWIRT HOTEL RASTAURANT","RISTORANTE / PIZZERIA","MAI","VICOLO CHIESA, 7",39030,"VALDAORA","BZ",46.7579400105206,12.0405999720286
"METRO RISTORANTE PIZZERIA","RISTORANTE / PIZZERIA","DO","VIALE DRUSO, 339",39100,"BOLZANO","BZ",46.494199990525,11.3186300226108
"METZGEREI FRANZELIN GASTRONOMIA","GASTRONOMIA/ROSTICCERIA","MAI","VIA RIO SCALERES, 46",39042,"BRESSANONE","BZ",46.721709988416,11.6525600159786
"MEZOPOTAMIA","GASTRONOMIA/ROSTICCERIA","MAI","VIA PALERMO, 72",39100,"BOLZANO","BZ",46.4895800112232,11.3314600341634
"MEZZA LUNA HOTEL RISTORANTE","RISTORANTE / PIZZERIA","MAI","VIA FRUNDSBERG, 12",39049,"VIPITENO","BZ",46.8977799950623,11.4308799670222
"MILA BISTRO RISTORANTE","RISTORANTE","MAI","VIA INNSBRUCK, 41",39100,"BOLZANO","BZ",46.493750008053,11.3817699772221
